{
"type": "FeatureCollection",
"crs": { "type": "name", "properties": { "name": "urn:ogc:def:crs:OGC:1.3:CRS84" } },
                                                                                
"features": [
{ "type": "Feature", "properties": { "id": 2419602206.0, "name": "ФОП Ткаченко Катерина іванівна ", "number": "162324-64-0045", "type": "АЛКОГОЛЬ", "from": 20160121, "to": 20170120, "address": "м.Черкаси, вул. Смілянська, 122\/1", "status": "Видана", "lon": 32.037956, "lat": 49.422082 }, "geometry": { "type": "Point", "coordinates": [ 32.037956, 49.422082 ] } },
{ "type": "Feature", "properties": { "id": 2403800069.0, "name": "ФОП Коваленко Олена Валентинівна ", "number": "162324-64-0047", "type": "АЛКОГОЛЬ", "from": 20160115, "to": 20170114, "address": "м. Черкаси, вул. Гагаріна, 140", "status": "Видана", "lon": 32.076063, "lat": 49.437766 }, "geometry": { "type": "Point", "coordinates": [ 32.076063, 49.437766 ] } },
{ "type": "Feature", "properties": { "id": 2618201571.0, "name": "ФОП Затока Андрій Віталійович ", "number": "162324-64-0063", "type": "АЛКОГОЛЬ", "from": 20160123, "to": 20170122, "address": "м. Черкаси, бул. Шевченка, 264", "status": "Видана", "lon": 32.067529, "lat": 49.43926 }, "geometry": { "type": "Point", "coordinates": [ 32.067529, 49.43926 ] } },
{ "type": "Feature", "properties": { "id": 24410808.0, "name": "ДП Юрія-2 ПАТ Юрія", "number": "162324-64-0080", "type": "АЛКОГОЛЬ", "from": 20160124, "to": 20170123, "address": "м. Черкаси, вул. Чехова, 106", "status": "Видана", "lon": 32.08501, "lat": 49.416092 }, "geometry": { "type": "Point", "coordinates": [ 32.08501, 49.416092 ] } },
{ "type": "Feature", "properties": { "id": 24410808.0, "name": "ДП Юрія-2 ПАТ Юрія", "number": "162324-64-0081", "type": "АЛКОГОЛЬ", "from": 20160124, "to": 20170123, "address": "м. Черкаси, вул. Сержанта Смірнова, 5", "status": "Видана", "lon": 32.0840532, "lat": 49.4367873 }, "geometry": { "type": "Point", "coordinates": [ 32.0840532, 49.4367873 ] } },
{ "type": "Feature", "properties": { "id": 3148413901.0, "name": "ФОП Гадар Наталія іванівна ", "number": "162324-64-0082", "type": "АЛКОГОЛЬ", "from": 20160122, "to": 20170121, "address": "м. Черкаси, вул. Ярослава Галана, 11", "status": "Видана", "lon": 32.014106, "lat": 49.457581 }, "geometry": { "type": "Point", "coordinates": [ 32.014106, 49.457581 ] } },
{ "type": "Feature", "properties": { "id": 2646802324.0, "name": "ФОП Тимошкіна Ганна Володимирівна ", "number": "162324-64-0084", "type": "АЛКОГОЛЬ", "from": 20160207, "to": 20170206, "address": "м. Черкаси, бул. Шевченка, 275", "status": "Видана", "lon": 32.074311, "lat": 49.436185 }, "geometry": { "type": "Point", "coordinates": [ 32.074311, 49.436185 ] } },
{ "type": "Feature", "properties": { "id": 3026715971.0, "name": "ФОП Павленко Андрій Олексійович ", "number": "162324-64-0085", "type": "АЛКОГОЛЬ", "from": 20160123, "to": 20170122, "address": "м. Черкаси, бул. Шевченка, 275", "status": "Видана", "lon": 32.074311, "lat": 49.436185 }, "geometry": { "type": "Point", "coordinates": [ 32.074311, 49.436185 ] } },
{ "type": "Feature", "properties": { "id": 2793313649.0, "name": "ФОП Чухлян Марина Олександрівна ", "number": "162324-64-0135", "type": "АЛКОГОЛЬ", "from": 20160201, "to": 20170131, "address": "м. Черкаси, бул. Шевченка, 345\/10", "status": "Видана", "lon": 32.089915, "lat": 49.427795 }, "geometry": { "type": "Point", "coordinates": [ 32.089915, 49.427795 ] } },
{ "type": "Feature", "properties": { "id": 2546001631.0, "name": "ФОП Зозуля ігор іванович ", "number": "162324-64-0153", "type": "АЛКОГОЛЬ", "from": 20160125, "to": 20170124, "address": "м.Черкаси, вул.Фрунзе, 145", "status": "Видана", "lon": 32.081471, "lat": 49.434831 }, "geometry": { "type": "Point", "coordinates": [ 32.081471, 49.434831 ] } },
{ "type": "Feature", "properties": { "id": 39691520.0, "name": "ТОВ ОПТТОРГ-15", "number": "162324-64-0162", "type": "АЛКОГОЛЬ", "from": 20160126, "to": 20170125, "address": "м.Черкаси, вул.В’ячеслава Чорновола, буд.157", "status": "Видана", "lon": 32.0691848, "lat": 49.4179447 }, "geometry": { "type": "Point", "coordinates": [ 32.0691848, 49.4179447 ] } },
{ "type": "Feature", "properties": { "id": 3034321017.0, "name": "ФОП Щербатюк Борис Анатолійович ", "number": "162324-64-0179", "type": "АЛКОГОЛЬ", "from": 20160128, "to": 20170127, "address": "м. Черкаси, вул. Чигиринська, 70", "status": "Видана", "lon": 32.117305, "lat": 49.403244 }, "geometry": { "type": "Point", "coordinates": [ 32.117305, 49.403244 ] } },
{ "type": "Feature", "properties": { "id": 1309605764.0, "name": "ФОП Олексенко Ганна Калениківна ", "number": "162324-64-0195", "type": "АЛКОГОЛЬ", "from": 20160206, "to": 20170205, "address": "м.Черкаси, вул.Гоголя, 206\/1", "status": "Видана", "lon": 32.052752, "lat": 49.444778 }, "geometry": { "type": "Point", "coordinates": [ 32.052752, 49.444778 ] } },
{ "type": "Feature", "properties": { "id": 35871504.0, "name": "ТОВ Баядера Логістик", "number": "162324-64-0253", "type": "АЛКОГОЛЬ", "from": 20160201, "to": 20170131, "address": "м. Черкаси, вул. Академіка Корольова, 7", "status": "Видана", "lon": 32.019442, "lat": 49.443214 }, "geometry": { "type": "Point", "coordinates": [ 32.019442, 49.443214 ] } },
{ "type": "Feature", "properties": { "id": 2556800281.0, "name": "ФОП Діскант Олена Павлівна ", "number": "162324-64-0255", "type": "АЛКОГОЛЬ", "from": 20160213, "to": 20170212, "address": "м. Черкаси, вул. Благовісна, 455\/1", "status": "Видана", "lon": 32.087355, "lat": 49.423974 }, "geometry": { "type": "Point", "coordinates": [ 32.087355, 49.423974 ] } },
{ "type": "Feature", "properties": { "id": 2408001977.0, "name": "ФОП Чмих Сергій Михайлович ", "number": "162324-64-0256", "type": "АЛКОГОЛЬ", "from": 20160201, "to": 20170131, "address": "м. Черкаси, вул. Байди Вшневецького, 19", "status": "Видана", "lon": 32.063478, "lat": 49.446811 }, "geometry": { "type": "Point", "coordinates": [ 32.063478, 49.446811 ] } },
{ "type": "Feature", "properties": { "id": 3357168.0, "name": "КП Черкасиводоканал  ЧЕРКАСЬКОЇ МіСЬКОЇ РАДИ", "number": "162324-64-0257", "type": "АЛКОГОЛЬ", "from": 20160208, "to": 20170207, "address": "м. Черкаси, вул. Ватутіна, 12", "status": "Видана", "lon": 32.059759, "lat": 49.428041 }, "geometry": { "type": "Point", "coordinates": [ 32.059759, 49.428041 ] } },
{ "type": "Feature", "properties": { "id": 37320672.0, "name": "ТОВ Мадагаскар-Сервіс", "number": "162324-64-0259", "type": "АЛКОГОЛЬ", "from": 20160218, "to": 20170217, "address": "м. Черкаси, вул. Дашкевича, 19", "status": "Видана", "lon": 32.0630365, "lat": 49.4446985 }, "geometry": { "type": "Point", "coordinates": [ 32.0630365, 49.4446985 ] } },
{ "type": "Feature", "properties": { "id": 37320672.0, "name": "ТОВ Мадагаскар-Сервіс", "number": "162324-64-0260", "type": "АЛКОГОЛЬ", "from": 20160206, "to": 20170205, "address": "м.Черкаси, бульвар Шевченка, 208", "status": "Видана", "lon": 32.0563, "lat": 49.445112 }, "geometry": { "type": "Point", "coordinates": [ 32.0563, 49.445112 ] } },
{ "type": "Feature", "properties": { "id": 38843621.0, "name": "ПСК КООПМАРКЕТ ЧЕСКО ЧОСС", "number": "162324-64-0298", "type": "АЛКОГОЛЬ", "from": 20160206, "to": 20170205, "address": "м.Черкаси, вул.Ворошилова, 6", "status": "Видана", "lon": 32.00169, "lat": 49.4807506 }, "geometry": { "type": "Point", "coordinates": [ 32.00169, 49.4807506 ] } },
{ "type": "Feature", "properties": { "id": 3149919311.0, "name": "ФОП Базелюк Олексій Володимирович ", "number": "162324-64-0359", "type": "АЛКОГОЛЬ", "from": 20160201, "to": 20170131, "address": "м. Черкаси,вул. Хрещатик, 200", "status": "Видана", "lon": 32.065068, "lat": 49.442845 }, "geometry": { "type": "Point", "coordinates": [ 32.065068, 49.442845 ] } },
{ "type": "Feature", "properties": { "id": 2275613487.0, "name": "ФОП Труба ірина Миколаївна ", "number": "162324-64-0365", "type": "АЛКОГОЛЬ", "from": 20160212, "to": 20170211, "address": "м. Черкаси, вул. Благовісна, 171", "status": "Видана", "lon": 32.050596, "lat": 49.444643 }, "geometry": { "type": "Point", "coordinates": [ 32.050596, 49.444643 ] } },
{ "type": "Feature", "properties": { "id": 38469658.0, "name": "ТОВ Торговий Дім Квартал", "number": "162324-64-0366", "type": "АЛКОГОЛЬ", "from": 20160215, "to": 20170214, "address": "м. Черкаси, проїзд Залізничний, 18", "status": "Видана", "lon": 32.045332, "lat": 49.419198 }, "geometry": { "type": "Point", "coordinates": [ 32.045332, 49.419198 ] } },
{ "type": "Feature", "properties": { "id": 2767320318.0, "name": "ФОП Воєвода Едуард Олексійович ", "number": "162324-64-0368", "type": "АЛКОГОЛЬ", "from": 20160211, "to": 20170210, "address": "м. Черкаси, вул. Смілянська, 149", "status": "Видана", "lon": 32.027338, "lat": 49.411726 }, "geometry": { "type": "Point", "coordinates": [ 32.027338, 49.411726 ] } },
{ "type": "Feature", "properties": { "id": 2974912681.0, "name": "ФОП Манько Алла Володимирівна ", "number": "162324-64-0371", "type": "АЛКОГОЛЬ", "from": 20160208, "to": 20170207, "address": "м. Черкаси, вул. Леніна,35", "status": "Видана", "lon": 32.066578, "lat": 49.4399931 }, "geometry": { "type": "Point", "coordinates": [ 32.066578, 49.4399931 ] } },
{ "type": "Feature", "properties": { "id": 2687522370.0, "name": "ФОП Усиченко Костянтин Леонідович ", "number": "162324-64-0388", "type": "АЛКОГОЛЬ", "from": 20160208, "to": 20170207, "address": "м. Черкаси, вул. Благовісна, 167\/Котовського,67", "status": "Видана", "lon": 32.0472479, "lat": 49.4448308 }, "geometry": { "type": "Point", "coordinates": [ 32.0472479, 49.4448308 ] } },
{ "type": "Feature", "properties": { "id": 38843621.0, "name": "ПСК КООПМАРКЕТ ЧЕСКО ЧОСС", "number": "162324-64-0390", "type": "АЛКОГОЛЬ", "from": 20160209, "to": 20170208, "address": "м.Черкаси, вул.Смілянська,149", "status": "Видана", "lon": 32.027338, "lat": 49.411726 }, "geometry": { "type": "Point", "coordinates": [ 32.027338, 49.411726 ] } },
{ "type": "Feature", "properties": { "id": 14200843.0, "name": "ТОВ Захист рослин", "number": "162324-64-0406", "type": "АЛКОГОЛЬ", "from": 20160209, "to": 20170208, "address": "м. Черкаси, бул. Шевченка, 180", "status": "Видана", "lon": 32.052249, "lat": 49.447929 }, "geometry": { "type": "Point", "coordinates": [ 32.052249, 49.447929 ] } },
{ "type": "Feature", "properties": { "id": 2783803645.0, "name": "ФОП Іщенко Оксана Василівна ", "number": "162324-64-0424", "type": "АЛКОГОЛЬ", "from": 20160218, "to": 20170217, "address": "м. Черкаси, вул. Чорновола, 71", "status": "Видана", "lon": 32.078632, "lat": 49.424889 }, "geometry": { "type": "Point", "coordinates": [ 32.078632, 49.424889 ] } },
{ "type": "Feature", "properties": { "id": 2514900150.0, "name": "ФОП Гладкий Анатолій Георгійович ", "number": "162324-64-0431", "type": "АЛКОГОЛЬ", "from": 20160212, "to": 20170211, "address": "м. Черкаси, вул. 30-річчя Перемоги, 36", "status": "Видана", "lon": 32.01469, "lat": 49.424877 }, "geometry": { "type": "Point", "coordinates": [ 32.01469, 49.424877 ] } },
{ "type": "Feature", "properties": { "id": 2502310115.0, "name": "ФОП Розмаїтий Сергій Володимирович ", "number": "162324-64-0443", "type": "АЛКОГОЛЬ", "from": 20160213, "to": 20170212, "address": "м. Черкаси, вул. Байди Вишневецького, 32", "status": "Видана", "lon": 32.059579, "lat": 49.445481 }, "geometry": { "type": "Point", "coordinates": [ 32.059579, 49.445481 ] } },
{ "type": "Feature", "properties": { "id": 37551388.0, "name": "ТОВ Заклади харчування ЗГОЛОДНіВ", "number": "162324-64-0469", "type": "АЛКОГОЛЬ", "from": 20160213, "to": 20170212, "address": "м. Черкаси, вул. Крупської. 7\/2", "status": "Видана", "lon": 32.0503026, "lat": 49.4293395 }, "geometry": { "type": "Point", "coordinates": [ 32.0503026, 49.4293395 ] } },
{ "type": "Feature", "properties": { "id": 2891907375.0, "name": "ФОП Бондаренко Сергій Володимирович ", "number": "162324-64-0489", "type": "АЛКОГОЛЬ", "from": 20160205, "to": 20170204, "address": "м. Черкаси, вул. Сурікова, 30", "status": "Видана", "lon": 32.03463, "lat": 49.381816 }, "geometry": { "type": "Point", "coordinates": [ 32.03463, 49.381816 ] } },
{ "type": "Feature", "properties": { "id": 2644600257.0, "name": "ФОП Попудрібко Ярослав Борисович ", "number": "162324-64-0495", "type": "АЛКОГОЛЬ", "from": 20160216, "to": 20170215, "address": "м. Черкаси, вул. Чорновола, 122\/41", "status": "Видана", "lon": 32.064888, "lat": 49.415037 }, "geometry": { "type": "Point", "coordinates": [ 32.064888, 49.415037 ] } },
{ "type": "Feature", "properties": { "id": 2686509737.0, "name": "ФОП Попудрібко Віталій Борисович ", "number": "162324-64-0497", "type": "АЛКОГОЛЬ", "from": 20160216, "to": 20170215, "address": "м. Черкаси, вул. Толстого, 20", "status": "Видана", "lon": 32.097703, "lat": 49.430027 }, "geometry": { "type": "Point", "coordinates": [ 32.097703, 49.430027 ] } },
{ "type": "Feature", "properties": { "id": 40109566.0, "name": "ТОВ МАГЕЛЛАН ФУД", "number": "162324-64-0506", "type": "АЛКОГОЛЬ", "from": 20160215, "to": 20170214, "address": "м. Черкаси, бул. Шевченка, 109", "status": "Видана", "lon": 32.046967, "lat": 49.451549 }, "geometry": { "type": "Point", "coordinates": [ 32.046967, 49.451549 ] } },
{ "type": "Feature", "properties": { "id": 36262243.0, "name": "ТОВ Торгоснова", "number": "162324-64-0530", "type": "АЛКОГОЛЬ", "from": 20160221, "to": 20170220, "address": "м.Черкаси, вул. Капітана Пилипенко,1", "status": "Видана", "lon": 32.056058, "lat": 49.425498 }, "geometry": { "type": "Point", "coordinates": [ 32.056058, 49.425498 ] } },
{ "type": "Feature", "properties": { "id": 32653997.0, "name": "ПП Україна - Центр", "number": "162324-64-0539", "type": "АЛКОГОЛЬ", "from": 20160219, "to": 20170218, "address": "м. Черкаси, вул. Леніна, 2", "status": "Видана", "lon": 32.067859, "lat": 49.4419295 }, "geometry": { "type": "Point", "coordinates": [ 32.067859, 49.4419295 ] } },
{ "type": "Feature", "properties": { "id": 2140702498.0, "name": "ФОП Карбівничий Василь іванович ", "number": "162324-64-0540", "type": "АЛКОГОЛЬ", "from": 20160220, "to": 20170219, "address": "м. Черкаси, вул. Байди .Вишневецького, 24", "status": "Видана", "lon": 32.057761, "lat": 49.4457885 }, "geometry": { "type": "Point", "coordinates": [ 32.057761, 49.4457885 ] } },
{ "type": "Feature", "properties": { "id": 2709314287.0, "name": "ФОП Пачесюк Тетяна Анатоліївна ", "number": "162324-64-0541", "type": "АЛКОГОЛЬ", "from": 20160227, "to": 20170226, "address": "м. Черкаси, вул.Гагаріна, 75", "status": "Видана", "lon": 32.077518, "lat": 49.438833 }, "geometry": { "type": "Point", "coordinates": [ 32.077518, 49.438833 ] } },
{ "type": "Feature", "properties": { "id": 2862308195.0, "name": "ФОП Балоха Сергій Анатолійович ", "number": "162324-64-0543", "type": "АЛКОГОЛЬ", "from": 20160219, "to": 20170218, "address": "м. Черкаси на розі просп. Хіміків та вул. Рози Люксембург", "status": "Видана", "lon": 32.0455213, "lat": 49.4064592 }, "geometry": { "type": "Point", "coordinates": [ 32.0455213, 49.4064592 ] } },
{ "type": "Feature", "properties": { "id": 14193882.0, "name": "ТОВ  Дахнівчанка", "number": "162324-64-0556", "type": "АЛКОГОЛЬ", "from": 20160221, "to": 20170220, "address": "м. Черкаси, вул. Канівська, 3", "status": "Видана", "lon": 31.968966, "lat": 49.481888 }, "geometry": { "type": "Point", "coordinates": [ 31.968966, 49.481888 ] } },
{ "type": "Feature", "properties": { "id": 2133802624.0, "name": "ФОП Сугоняко Тетяна Михайлівна ", "number": "162324-64-0557", "type": "АЛКОГОЛЬ", "from": 20160212, "to": 20170211, "address": "м.Черкаси, вул.Небесної Сотні,26", "status": "Видана", "lon": 32.064708, "lat": 49.437966 }, "geometry": { "type": "Point", "coordinates": [ 32.064708, 49.437966 ] } },
{ "type": "Feature", "properties": { "id": 34556390.0, "name": "ТОВ  Прем'єр Плаза ЛТД", "number": "162324-64-0558", "type": "АЛКОГОЛЬ", "from": 20160222, "to": 20170221, "address": "м. Черкаси, вул. ільїна, 474", "status": "Видана", "lon": 32.094946, "lat": 49.415817 }, "geometry": { "type": "Point", "coordinates": [ 32.094946, 49.415817 ] } },
{ "type": "Feature", "properties": { "id": 1309605764.0, "name": "ФОП Олексенко Ганна Калениківна ", "number": "162324-64-0562", "type": "АЛКОГОЛЬ", "from": 20160301, "to": 20170228, "address": "м. Черкаси, вул. Петровського-Горького", "status": "Видана", "lon": 32.093868, "lat": 49.425047 }, "geometry": { "type": "Point", "coordinates": [ 32.093868, 49.425047 ] } },
{ "type": "Feature", "properties": { "id": 14190464.0, "name": "ПП Ресторан Чайка", "number": "162324-64-0589", "type": "АЛКОГОЛЬ", "from": 20160217, "to": 20170216, "address": "м.Черкаси, узвіз Парковий, 3", "status": "Видана", "lon": 32.065634, "lat": 49.448339 }, "geometry": { "type": "Point", "coordinates": [ 32.065634, 49.448339 ] } },
{ "type": "Feature", "properties": { "id": 14190464.0, "name": "ПП Ресторан Чайка", "number": "162324-64-0590", "type": "АЛКОГОЛЬ", "from": 20160217, "to": 20170216, "address": "м.Черкаси, узвіз Парковий, 3", "status": "Видана", "lon": 32.065634, "lat": 49.448339 }, "geometry": { "type": "Point", "coordinates": [ 32.065634, 49.448339 ] } },
{ "type": "Feature", "properties": { "id": 14190464.0, "name": "ПП Ресторан Чайка", "number": "162324-64-0591", "type": "АЛКОГОЛЬ", "from": 20160217, "to": 20170216, "address": "м.Черкаси, узвіз Парковий, 3", "status": "Видана", "lon": 32.065634, "lat": 49.448339 }, "geometry": { "type": "Point", "coordinates": [ 32.065634, 49.448339 ] } },
{ "type": "Feature", "properties": { "id": 14190464.0, "name": "ПП Ресторан Чайка", "number": "162324-64-0592", "type": "АЛКОГОЛЬ", "from": 20160217, "to": 20170216, "address": "м.Черкаси, узвіз Парковий, 3", "status": "Видана", "lon": 32.065634, "lat": 49.448339 }, "geometry": { "type": "Point", "coordinates": [ 32.065634, 49.448339 ] } },
{ "type": "Feature", "properties": { "id": 3232719619.0, "name": "ФОП Лісютенко Сергій Олександрович ", "number": "162324-64-0615", "type": "АЛКОГОЛЬ", "from": 20160217, "to": 20170216, "address": "м. Черкаси, вул. Корнійчука, 17", "status": "Видана", "lon": 32.0651962, "lat": 49.4286608 }, "geometry": { "type": "Point", "coordinates": [ 32.0651962, 49.4286608 ] } },
{ "type": "Feature", "properties": { "id": 2635201592.0, "name": "ФОП Олійник Юрій Петрович ", "number": "162324-64-0629", "type": "АЛКОГОЛЬ", "from": 20160228, "to": 20170227, "address": "м. Черкаси, вул. Університетська, 25", "status": "Видана", "lon": 32.04402, "lat": 49.451707 }, "geometry": { "type": "Point", "coordinates": [ 32.04402, 49.451707 ] } },
{ "type": "Feature", "properties": { "id": 2648821130.0, "name": "ФОП Хелетій Олег Павлович ", "number": "162324-64-0682", "type": "АЛКОГОЛЬ", "from": 20160306, "to": 20170305, "address": "м.Черкаси, вул.Чіковані,23\/1", "status": "Видана", "lon": 32.051422, "lat": 49.409035 }, "geometry": { "type": "Point", "coordinates": [ 32.051422, 49.409035 ] } },
{ "type": "Feature", "properties": { "id": 2648821130.0, "name": "ФОП Хелетій Олег Павлович ", "number": "162324-64-0684", "type": "АЛКОГОЛЬ", "from": 20160228, "to": 20170227, "address": "м. Черкаси, вул. Г.Дніпра, 83", "status": "Видана", "lon": 32.072664, "lat": 49.4449225 }, "geometry": { "type": "Point", "coordinates": [ 32.072664, 49.4449225 ] } },
{ "type": "Feature", "properties": { "id": 32294926.0, "name": "ТОВ ФОЗЗі-ФУД", "number": "162324-64-0685", "type": "АЛКОГОЛЬ", "from": 20160401, "to": 20170331, "address": "м. Черкаси, бульвар Шевченка, 208", "status": "Видана", "lon": 32.0563, "lat": 49.445112 }, "geometry": { "type": "Point", "coordinates": [ 32.0563, 49.445112 ] } },
{ "type": "Feature", "properties": { "id": 2748611996.0, "name": "ФОП Дон Вячеслав Миколайович ", "number": "162324-64-0708", "type": "АЛКОГОЛЬ", "from": 20160301, "to": 20170228, "address": "м. Черкаси, вул. Кавказька, 103", "status": "Видана", "lon": 32.047362, "lat": 49.456515 }, "geometry": { "type": "Point", "coordinates": [ 32.047362, 49.456515 ] } },
{ "type": "Feature", "properties": { "id": 3290710713.0, "name": "ФОП Дзюбан Дмитро Олександрович ", "number": "162324-64-0712", "type": "АЛКОГОЛЬ", "from": 20160307, "to": 20170306, "address": "м. Черкаси, вул. В.Чорновола,166", "status": "Видана", "lon": 32.0518312, "lat": 49.4078729 }, "geometry": { "type": "Point", "coordinates": [ 32.0518312, 49.4078729 ] } },
{ "type": "Feature", "properties": { "id": 39622546.0, "name": "ТОВ Екватор СК", "number": "162324-64-0713", "type": "АЛКОГОЛЬ", "from": 20160302, "to": 20170301, "address": "м.Черкаси, вул.Героїв Дніпра,50", "status": "Видана", "lon": 32.08341, "lat": 49.43935 }, "geometry": { "type": "Point", "coordinates": [ 32.08341, 49.43935 ] } },
{ "type": "Feature", "properties": { "id": 2691801519.0, "name": "ФОП Дашкевич Сергій Валентинович ", "number": "162324-64-0714", "type": "АЛКОГОЛЬ", "from": 20160304, "to": 20170303, "address": "м. Черкаси, вул. Луначарського, 17", "status": "Видана", "lon": 32.0165487, "lat": 49.4569824 }, "geometry": { "type": "Point", "coordinates": [ 32.0165487, 49.4569824 ] } },
{ "type": "Feature", "properties": { "id": 2644600257.0, "name": "ФОП Попудрібко Ярослав Борисович ", "number": "162324-64-0740", "type": "АЛКОГОЛЬ", "from": 20160226, "to": 20170225, "address": "м. Черкаси, вул. Петровського, 175", "status": "Видана", "lon": 32.08537, "lat": 49.419281 }, "geometry": { "type": "Point", "coordinates": [ 32.08537, 49.419281 ] } },
{ "type": "Feature", "properties": { "id": 2353809642.0, "name": "ФОП Прокопенко ірина Володимирівна ", "number": "162324-64-0742", "type": "АЛКОГОЛЬ", "from": 20160302, "to": 20170301, "address": "м.Черкаси, вул.30р. Перемоги,б.4", "status": "Видана", "lon": 32.0292764, "lat": 49.4170508 }, "geometry": { "type": "Point", "coordinates": [ 32.0292764, 49.4170508 ] } },
{ "type": "Feature", "properties": { "id": 37551388.0, "name": "ТОВ Заклади харчування ЗГОЛОДНіВ", "number": "162324-64-0749", "type": "АЛКОГОЛЬ", "from": 20160303, "to": 20170302, "address": "м. Черкаси, вул. Вернигори,2", "status": "Видана", "lon": 32.049033, "lat": 49.42698 }, "geometry": { "type": "Point", "coordinates": [ 32.049033, 49.42698 ] } },
{ "type": "Feature", "properties": { "id": 2075402434.0, "name": "ФОП Єрмоленко ігор Станіславович ", "number": "162324-64-0750", "type": "АЛКОГОЛЬ", "from": 20160307, "to": 20170306, "address": "м. Черкаси, вул. Сумгаїтська, 24\/1", "status": "Видана", "lon": 32.010612, "lat": 49.431375 }, "geometry": { "type": "Point", "coordinates": [ 32.010612, 49.431375 ] } },
{ "type": "Feature", "properties": { "id": 36387249.0, "name": "ТОВ Фудмережа", "number": "162324-64-0751", "type": "АЛКОГОЛЬ", "from": 20160311, "to": 20170310, "address": "м.Черкаси, вул. Героїв Сталінграду, 34", "status": "Видана", "lon": 32.088939, "lat": 49.4345452 }, "geometry": { "type": "Point", "coordinates": [ 32.088939, 49.4345452 ] } },
{ "type": "Feature", "properties": { "id": 2685423069.0, "name": "ФОП Таран Людмила Василівна ", "number": "162324-64-0753", "type": "АЛКОГОЛЬ", "from": 20160308, "to": 20170307, "address": "м. Черкаси, вул.  Хрещатик, 225", "status": "Видана", "lon": 32.062885, "lat": 49.445364 }, "geometry": { "type": "Point", "coordinates": [ 32.062885, 49.445364 ] } },
{ "type": "Feature", "properties": { "id": 39691520.0, "name": "ТОВ ОПТТОРГ-15", "number": "162324-64-0755", "type": "АЛКОГОЛЬ", "from": 20160303, "to": 20170302, "address": "м.Черкаси, вул.Лук\"янова,5\/1", "status": "Видана", "lon": 32.0356677, "lat": 49.4250371 }, "geometry": { "type": "Point", "coordinates": [ 32.0356677, 49.4250371 ] } },
{ "type": "Feature", "properties": { "id": 39691520.0, "name": "ТОВ ОПТТОРГ-15", "number": "162324-64-0756", "type": "АЛКОГОЛЬ", "from": 20160303, "to": 20170302, "address": "м.Черкаси, вул.Ярославська,буд.8\/1", "status": "Видана", "lon": 32.008195, "lat": 49.436823 }, "geometry": { "type": "Point", "coordinates": [ 32.008195, 49.436823 ] } },
{ "type": "Feature", "properties": { "id": 40279530.0, "name": "ТОВ БАР-2", "number": "162324-64-0797", "type": "АЛКОГОЛЬ", "from": 20160301, "to": 20170228, "address": "м.Черкаси, вул.Г.Сталніграда,34", "status": "Видана", "lon": 32.088939, "lat": 49.4345452 }, "geometry": { "type": "Point", "coordinates": [ 32.088939, 49.4345452 ] } },
{ "type": "Feature", "properties": { "id": 40279504.0, "name": "ТОВ БАР-1", "number": "162324-64-0798", "type": "АЛКОГОЛЬ", "from": 20160301, "to": 20170228, "address": "м.Черкаси, бул.Шевченка,208", "status": "Видана", "lon": 32.0563, "lat": 49.445112 }, "geometry": { "type": "Point", "coordinates": [ 32.0563, 49.445112 ] } },
{ "type": "Feature", "properties": { "id": 1876721291.0, "name": "ФОП Чернишов Геннадій Олександрович ", "number": "162324-64-0801", "type": "АЛКОГОЛЬ", "from": 20160314, "to": 20170313, "address": "м. Черкаси, проспект Хіміків вул. Р.Люксембург", "status": "Видана", "lon": 32.061151, "lat": 49.398923 }, "geometry": { "type": "Point", "coordinates": [ 32.061151, 49.398923 ] } },
{ "type": "Feature", "properties": { "id": 2845106841.0, "name": "ФОП Лінкевич Людмила Миколаївна ", "number": "162324-64-0820", "type": "АЛКОГОЛЬ", "from": 20160309, "to": 20170308, "address": "м.Черкаси, вул. Чигиринська,11", "status": "Видана", "lon": 32.103084, "lat": 49.414486 }, "geometry": { "type": "Point", "coordinates": [ 32.103084, 49.414486 ] } },
{ "type": "Feature", "properties": { "id": 36262243.0, "name": "ТОВ Торгоснова", "number": "162324-64-0822", "type": "АЛКОГОЛЬ", "from": 20160312, "to": 20170311, "address": "м.Черкаси, бул. Шевченка, 320\/1", "status": "Видана", "lon": 32.07733, "lat": 49.433648 }, "geometry": { "type": "Point", "coordinates": [ 32.07733, 49.433648 ] } },
{ "type": "Feature", "properties": { "id": 2704101456.0, "name": "ФОП Новіков Руслан Васильович ", "number": "162324-64-0823", "type": "АЛКОГОЛЬ", "from": 20160302, "to": 20170301, "address": "м.Черкаси, вул.ільїна,411", "status": "Видана", "lon": 32.077635, "lat": 49.426752 }, "geometry": { "type": "Point", "coordinates": [ 32.077635, 49.426752 ] } },
{ "type": "Feature", "properties": { "id": 1309605764.0, "name": "ФОП Олексенко Ганна Калениківна ", "number": "162324-64-0861", "type": "АЛКОГОЛЬ", "from": 20160310, "to": 20170309, "address": "м. Черкаси, вул. Чигиринська, 40", "status": "Видана", "lon": 32.103794, "lat": 49.412371 }, "geometry": { "type": "Point", "coordinates": [ 32.103794, 49.412371 ] } },
{ "type": "Feature", "properties": { "id": 1309605764.0, "name": "ФОП Олексенко Ганна Калениківна ", "number": "162324-64-0863", "type": "АЛКОГОЛЬ", "from": 20160325, "to": 20170324, "address": "м. Черкаси, бул. Шевченка, 208", "status": "Видана", "lon": 32.0563, "lat": 49.445112 }, "geometry": { "type": "Point", "coordinates": [ 32.0563, 49.445112 ] } },
{ "type": "Feature", "properties": { "id": 21384364.0, "name": "ТОВ Фортекс", "number": "162324-64-0905", "type": "АЛКОГОЛЬ", "from": 20160327, "to": 20170326, "address": "м. Черкаси, вул. Можайського\/ільїна, 60\/54", "status": "Видана", "lon": 32.0268771, "lat": 49.453871 }, "geometry": { "type": "Point", "coordinates": [ 32.0268771, 49.453871 ] } },
{ "type": "Feature", "properties": { "id": 2979016037.0, "name": "ФОП Нечай Євгеній Анатолійович ", "number": "162324-64-0907", "type": "АЛКОГОЛЬ", "from": 20160310, "to": 20170309, "address": "м. Черкаси, вул. Плеханова, 2", "status": "Видана", "lon": 32.0423212, "lat": 49.4065183 }, "geometry": { "type": "Point", "coordinates": [ 32.0423212, 49.4065183 ] } },
{ "type": "Feature", "properties": { "id": 2399701611.0, "name": "ФОП Човганюк Євгеній Дмитрович ", "number": "162324-64-0920", "type": "АЛКОГОЛЬ", "from": 20160315, "to": 20170314, "address": "м. Черкаси, вул. Сумгаїтська, автостоянка ПВКФ \"Оніка\"", "status": "Видана", "lon": 32.01454, "lat": 49.433224 }, "geometry": { "type": "Point", "coordinates": [ 32.01454, 49.433224 ] } },
{ "type": "Feature", "properties": { "id": 2750509740.0, "name": "ФОП Потужна Наталія Василівна ", "number": "162324-64-0923", "type": "АЛКОГОЛЬ", "from": 20160315, "to": 20170314, "address": "м. Черкаси, вул. В. Чорновола,33", "status": "Видана", "lon": 32.083905, "lat": 49.428539 }, "geometry": { "type": "Point", "coordinates": [ 32.083905, 49.428539 ] } },
{ "type": "Feature", "properties": { "id": 2957207280.0, "name": "ФОП Дуцька Ольга Михайлівна ", "number": "162324-64-0934", "type": "АЛКОГОЛЬ", "from": 20160313, "to": 20170312, "address": "м. Черкаси, вул. Гоголя, 274", "status": "Видана", "lon": 32.064493, "lat": 49.438382 }, "geometry": { "type": "Point", "coordinates": [ 32.064493, 49.438382 ] } },
{ "type": "Feature", "properties": { "id": 1876721291.0, "name": "ФОП Чернишов Геннадій Олександрович ", "number": "162324-64-0949", "type": "АЛКОГОЛЬ", "from": 20160316, "to": 20170315, "address": "м.Черкаси, вул. Руставі - Тараскова", "status": "Видана", "lon": 32.001035, "lat": 49.438252 }, "geometry": { "type": "Point", "coordinates": [ 32.001035, 49.438252 ] } },
{ "type": "Feature", "properties": { "id": 3389714010.0, "name": "ФОП Коваль Назар Олександрович ", "number": "162324-64-0951", "type": "АЛКОГОЛЬ", "from": 20160309, "to": 20170308, "address": "м. Черкаси, вул. Гоголя, 242\/1", "status": "Видана", "lon": 32.058923, "lat": 49.441504 }, "geometry": { "type": "Point", "coordinates": [ 32.058923, 49.441504 ] } },
{ "type": "Feature", "properties": { "id": 2970616130.0, "name": "ФОП іщук Юрій Валерійович ", "number": "162324-64-0954", "type": "АЛКОГОЛЬ", "from": 20160309, "to": 20170308, "address": "м.Черкаси, вул.С.Смірнова,біля буд. №6", "status": "Видана", "lon": 32.0838389, "lat": 49.4360423 }, "geometry": { "type": "Point", "coordinates": [ 32.0838389, 49.4360423 ] } },
{ "type": "Feature", "properties": { "id": 24354040.0, "name": "Приватне сервісне підприємство Ньютон", "number": "162324-64-0955", "type": "АЛКОГОЛЬ", "from": 20160324, "to": 20170323, "address": "м. Черкаси, вул. Смілянська, 131", "status": "Видана", "lon": 32.033528, "lat": 49.41686 }, "geometry": { "type": "Point", "coordinates": [ 32.033528, 49.41686 ] } },
{ "type": "Feature", "properties": { "id": 2644600257.0, "name": "ФОП Попудрібко Ярослав Борисович ", "number": "162324-64-0957", "type": "АЛКОГОЛЬ", "from": 20160403, "to": 20170402, "address": "м. Черкаси, вул. Рябоконя, 25", "status": "Видана", "lon": 32.095871, "lat": 49.411732 }, "geometry": { "type": "Point", "coordinates": [ 32.095871, 49.411732 ] } },
{ "type": "Feature", "properties": { "id": 2298914197.0, "name": "ФОП Сімонов Володимир Віталійович ", "number": "162324-64-0963", "type": "АЛКОГОЛЬ", "from": 20160329, "to": 20170328, "address": "м. Черкаси, вул. Г.Сталінграда, 42", "status": "Видана", "lon": 32.0870823, "lat": 49.4350109 }, "geometry": { "type": "Point", "coordinates": [ 32.0870823, 49.4350109 ] } },
{ "type": "Feature", "properties": { "id": 39691520.0, "name": "ТОВ ОПТТОРГ-15", "number": "162324-64-0984", "type": "АЛКОГОЛЬ", "from": 20160319, "to": 20170318, "address": "м.Черкаси, вул.Героїв Дніпра,буд.7", "status": "Видана", "lon": 32.095017, "lat": 49.439213 }, "geometry": { "type": "Point", "coordinates": [ 32.095017, 49.439213 ] } },
{ "type": "Feature", "properties": { "id": 3090417178.0, "name": "ФОП Вакуленко Вадим Володимирович ", "number": "162324-64-0986", "type": "АЛКОГОЛЬ", "from": 20160327, "to": 20170326, "address": "м. Черкаси, вул. Героїв Сталінграду,27", "status": "Видана", "lon": 32.0888615, "lat": 49.4334875 }, "geometry": { "type": "Point", "coordinates": [ 32.0888615, 49.4334875 ] } },
{ "type": "Feature", "properties": { "id": 2769701995.0, "name": "ФОП Кучер Михайло Якимович ", "number": "162324-64-0990", "type": "АЛКОГОЛЬ", "from": 20160319, "to": 20170318, "address": "м. Черкаси, вул. Дахнівська, 121", "status": "Видана", "lon": 32.020224, "lat": 49.467704 }, "geometry": { "type": "Point", "coordinates": [ 32.020224, 49.467704 ] } },
{ "type": "Feature", "properties": { "id": 2650612698.0, "name": "ФОП Скобін Микола Вячеславович ", "number": "162324-64-0992", "type": "АЛКОГОЛЬ", "from": 20160330, "to": 20170329, "address": "м. Черкаси, вул. Благовісна, 255", "status": "Видана", "lon": 32.061708, "lat": 49.438054 }, "geometry": { "type": "Point", "coordinates": [ 32.061708, 49.438054 ] } },
{ "type": "Feature", "properties": { "id": 39300684.0, "name": "ТОВ Українська Варенична", "number": "162324-64-0993", "type": "АЛКОГОЛЬ", "from": 20160321, "to": 20170320, "address": "м.Черкаси, вул.Лазарєва,буд.4", "status": "Видана", "lon": 32.0591996, "lat": 49.4443899 }, "geometry": { "type": "Point", "coordinates": [ 32.0591996, 49.4443899 ] } },
{ "type": "Feature", "properties": { "id": 2514900150.0, "name": "ФОП Гладкий Анатолій Георгійович ", "number": "162324-64-1009", "type": "АЛКОГОЛЬ", "from": 20160326, "to": 20170325, "address": "м. Черкаси, вул. Смілянська,115\/1", "status": "Видана", "lon": 32.043742, "lat": 49.424396 }, "geometry": { "type": "Point", "coordinates": [ 32.043742, 49.424396 ] } },
{ "type": "Feature", "properties": { "id": 3014017404.0, "name": "ФОП Кучевська Владислава Юріївна ", "number": "162324-64-1032", "type": "АЛКОГОЛЬ", "from": 20160401, "to": 20170331, "address": "м. Черкаси, вул. Леніна, 30", "status": "Видана", "lon": 32.0657245, "lat": 49.4401532 }, "geometry": { "type": "Point", "coordinates": [ 32.0657245, 49.4401532 ] } },
{ "type": "Feature", "properties": { "id": 36262243.0, "name": "ТОВ Торгоснова", "number": "162324-64-1033", "type": "АЛКОГОЛЬ", "from": 20160325, "to": 20170324, "address": "м.Черкаси, вул. Героїв Дніпра, 19", "status": "Видана", "lon": 32.091361, "lat": 49.437895 }, "geometry": { "type": "Point", "coordinates": [ 32.091361, 49.437895 ] } },
{ "type": "Feature", "properties": { "id": 1780902979.0, "name": "ФОП Баталов Юрій Вікторович ", "number": "162324-64-1035", "type": "АЛКОГОЛЬ", "from": 20160401, "to": 20170331, "address": "м. Черкаси, вул. Сумгаїтська, зупинка \"Ринок\"", "status": "Видана", "lon": 32.0155897, "lat": 49.4337363 }, "geometry": { "type": "Point", "coordinates": [ 32.0155897, 49.4337363 ] } },
{ "type": "Feature", "properties": { "id": 36980459.0, "name": "ТОВ Провайн", "number": "162324-64-1058", "type": "АЛКОГОЛЬ", "from": 20160331, "to": 20170330, "address": "м. Черкаси, вул. Хрещатик, 219", "status": "Видана", "lon": 32.061537, "lat": 49.446114 }, "geometry": { "type": "Point", "coordinates": [ 32.061537, 49.446114 ] } },
{ "type": "Feature", "properties": { "id": 2681001571.0, "name": "ФОП Демяненко Валерій Антонович ", "number": "162324-64-1092", "type": "АЛКОГОЛЬ", "from": 20160327, "to": 20170326, "address": "м. Черкаси, вул. Луначарського, 5", "status": "Видана", "lon": 32.018229, "lat": 49.454635 }, "geometry": { "type": "Point", "coordinates": [ 32.018229, 49.454635 ] } },
{ "type": "Feature", "properties": { "id": 37400134.0, "name": "ТОВ Торговий дім Черкаська продовольча компанія", "number": "162324-64-1093", "type": "АЛКОГОЛЬ", "from": 20160401, "to": 20170331, "address": "м. Черкаси, вул. Калініна, 44", "status": "Видана", "lon": 32.090032, "lat": 49.432271 }, "geometry": { "type": "Point", "coordinates": [ 32.090032, 49.432271 ] } },
{ "type": "Feature", "properties": { "id": 2974912681.0, "name": "ФОП Манько Алла Володимирівна ", "number": "162324-64-1094", "type": "АЛКОГОЛЬ", "from": 20160321, "to": 20170320, "address": "м. Черкаси, вул. Крилова, 95", "status": "Видана", "lon": 32.036905, "lat": 49.450541 }, "geometry": { "type": "Point", "coordinates": [ 32.036905, 49.450541 ] } },
{ "type": "Feature", "properties": { "id": 35266336.0, "name": "ТОВ Сушия", "number": "162324-64-1096", "type": "АЛКОГОЛЬ", "from": 20160405, "to": 20170404, "address": "м. Черкаси, бульвар Шевченко, буд.208\/1", "status": "Видана", "lon": 32.0563, "lat": 49.445112 }, "geometry": { "type": "Point", "coordinates": [ 32.0563, 49.445112 ] } },
{ "type": "Feature", "properties": { "id": 2452401968.0, "name": "ФОП Стороженко Ніна Петрівна ", "number": "162324-64-1103", "type": "АЛКОГОЛЬ", "from": 20160401, "to": 20170331, "address": "м.Черкаси ,вул.Смілянська,120\/1", "status": "Видана", "lon": 32.040059, "lat": 49.42309 }, "geometry": { "type": "Point", "coordinates": [ 32.040059, 49.42309 ] } },
{ "type": "Feature", "properties": { "id": 3127917173.0, "name": "ФОП Сьомкін Денис Дмитрович ", "number": "162324-64-1176", "type": "АЛКОГОЛЬ", "from": 20160401, "to": 20170331, "address": "м.Черкаси, на перетині вул.Гагаріна та входу в парк 50-річчя Жовтня (Ювілейний)", "status": "Видана", "lon": 32.0330875, "lat": 49.4644249 }, "geometry": { "type": "Point", "coordinates": [ 32.0330875, 49.4644249 ] } },
{ "type": "Feature", "properties": { "id": 2813720165.0, "name": "ФОП Зубкова Ольга Павлівна ", "number": "162324-64-1178", "type": "АЛКОГОЛЬ", "from": 20160401, "to": 20170331, "address": "м. Черкаси, вул.30 років Перемоги, 56\/1", "status": "Видана", "lon": 32.00665, "lat": 49.431123 }, "geometry": { "type": "Point", "coordinates": [ 32.00665, 49.431123 ] } },
{ "type": "Feature", "properties": { "id": 2541400068.0, "name": "ФОП Тимошенко Еріка Самедівна ", "number": "162324-64-1179", "type": "АЛКОГОЛЬ", "from": 20160328, "to": 20170327, "address": "м. Черкаси, бул. Шевченка,222", "status": "Видана", "lon": 32.059094, "lat": 49.443103 }, "geometry": { "type": "Point", "coordinates": [ 32.059094, 49.443103 ] } },
{ "type": "Feature", "properties": { "id": 2522802050.0, "name": "ФОП Кирилюк Юрій Миколайович ", "number": "162324-64-1200", "type": "АЛКОГОЛЬ", "from": 20160321, "to": 20170320, "address": "м.Черкаси, вул.Гагаріна,23", "status": "Видана", "lon": 32.0689332, "lat": 49.4460801 }, "geometry": { "type": "Point", "coordinates": [ 32.0689332, 49.4460801 ] } },
{ "type": "Feature", "properties": { "id": 38646058.0, "name": "ТОВ МД Остров", "number": "162324-64-1205", "type": "АЛКОГОЛЬ", "from": 20160402, "to": 20170401, "address": "м. Черкаси, бул. Шевченка, 208\/1", "status": "Видана", "lon": 32.0563, "lat": 49.445112 }, "geometry": { "type": "Point", "coordinates": [ 32.0563, 49.445112 ] } },
{ "type": "Feature", "properties": { "id": 3111223090.0, "name": "ФОП Луговий Олексій Віталійович ", "number": "162324-64-1214", "type": "АЛКОГОЛЬ", "from": 20160326, "to": 20170325, "address": "м. Черкаси, вул. Дашковича, 19, \"Хрещатик Сіті\"", "status": "Видана", "lon": 32.040391, "lat": 49.457657 }, "geometry": { "type": "Point", "coordinates": [ 32.040391, 49.457657 ] } },
{ "type": "Feature", "properties": { "id": 36262243.0, "name": "ТОВ Торгоснова", "number": "162324-64-1282", "type": "АЛКОГОЛЬ", "from": 20160406, "to": 20170405, "address": "м. Черкаси, вул. Смілянська, 144", "status": "Видана", "lon": 32.023494, "lat": 49.410665 }, "geometry": { "type": "Point", "coordinates": [ 32.023494, 49.410665 ] } },
{ "type": "Feature", "properties": { "id": 3115915394.0, "name": "ФОП Радзіховський Вячеслав Анатолійович ", "number": "162324-64-1283", "type": "АЛКОГОЛЬ", "from": 20160330, "to": 20170329, "address": "м.Черкаси, вул.Смілянська,96", "status": "Видана", "lon": 32.046742, "lat": 49.428287 }, "geometry": { "type": "Point", "coordinates": [ 32.046742, 49.428287 ] } },
{ "type": "Feature", "properties": { "id": 14185196.0, "name": "Приватне акціонерне товариство Експеримент", "number": "162324-64-1304", "type": "АЛКОГОЛЬ", "from": 20160401, "to": 20170331, "address": "м. Черкаси, вул. Ярославська, 26", "status": "Видана", "lon": 32.012795, "lat": 49.433736 }, "geometry": { "type": "Point", "coordinates": [ 32.012795, 49.433736 ] } },
{ "type": "Feature", "properties": { "id": 2502802011.0, "name": "ФОП Жежер Віталій Петрович ", "number": "162324-64-1305", "type": "АЛКОГОЛЬ", "from": 20160405, "to": 20170404, "address": "м. Черкаси, на розі вул. Громова -  К.Пилипенко", "status": "Видана", "lon": 32.0516819, "lat": 49.423331 }, "geometry": { "type": "Point", "coordinates": [ 32.0516819, 49.423331 ] } },
{ "type": "Feature", "properties": { "id": 2054809210.0, "name": "ФОП Завідний Сергій Васильович ", "number": "162324-64-1308", "type": "АЛКОГОЛЬ", "from": 20160401, "to": 20170331, "address": "м. Черкаси, вул. Ярослава Галана, 7", "status": "Видана", "lon": 32.015103, "lat": 49.457311 }, "geometry": { "type": "Point", "coordinates": [ 32.015103, 49.457311 ] } },
{ "type": "Feature", "properties": { "id": 2195823110.0, "name": "ФОП Коротченко Сергій Петрович ", "number": "162324-64-1322", "type": "АЛКОГОЛЬ", "from": 20160330, "to": 20170329, "address": "м.Черкаси, вул. В.Чорновола, 69", "status": "Видана", "lon": 32.079495, "lat": 49.425598 }, "geometry": { "type": "Point", "coordinates": [ 32.079495, 49.425598 ] } },
{ "type": "Feature", "properties": { "id": 35220930.0, "name": "ПП Готель Прима", "number": "162317-64-1351", "type": "АЛКОГОЛЬ", "from": 20160401, "to": 20170331, "address": "м.Черкаси, вул.Лісна,1", "status": "Видана", "lon": 31.9943267, "lat": 49.4773018 }, "geometry": { "type": "Point", "coordinates": [ 31.9943267, 49.4773018 ] } },
{ "type": "Feature", "properties": { "id": 35220930.0, "name": "ПП Готель Прима", "number": "162317-64-1352", "type": "АЛКОГОЛЬ", "from": 20160401, "to": 20170331, "address": "м. Черкаси, вул. Лісна, 1", "status": "Видана", "lon": 31.9943267, "lat": 49.4773018 }, "geometry": { "type": "Point", "coordinates": [ 31.9943267, 49.4773018 ] } },
{ "type": "Feature", "properties": { "id": 2608601955.0, "name": "ФОП Єлісєєв Віталій Георгійович ", "number": "162324-64-1362", "type": "АЛКОГОЛЬ", "from": 20160408, "to": 20170407, "address": "м. Черкаси, вул. Хрещатик, 200", "status": "Видана", "lon": 32.065068, "lat": 49.442845 }, "geometry": { "type": "Point", "coordinates": [ 32.065068, 49.442845 ] } },
{ "type": "Feature", "properties": { "id": 2220516606.0, "name": "ФОП Черниш Валентина Володимирівна ", "number": "162324-64-1363", "type": "АЛКОГОЛЬ", "from": 20160412, "to": 20170411, "address": "м. Черкаси, вул. Смілянська, 144", "status": "Видана", "lon": 32.023494, "lat": 49.410665 }, "geometry": { "type": "Point", "coordinates": [ 32.023494, 49.410665 ] } },
{ "type": "Feature", "properties": { "id": 31333219.0, "name": "ТОВ Кафе станції Черкаси-1", "number": "162324-64-1364", "type": "АЛКОГОЛЬ", "from": 20160411, "to": 20170410, "address": "м. Черкаси, вул. Крупської, 54\/2", "status": "Видана", "lon": 32.048287, "lat": 49.425598 }, "geometry": { "type": "Point", "coordinates": [ 32.048287, 49.425598 ] } },
{ "type": "Feature", "properties": { "id": 40186331.0, "name": "ПП Підкова Черкаси", "number": "162324-64-1372", "type": "АЛКОГОЛЬ", "from": 20160402, "to": 20170401, "address": "м.Черкаси ,вул.Смілянська,78", "status": "Видана", "lon": 32.056947, "lat": 49.436706 }, "geometry": { "type": "Point", "coordinates": [ 32.056947, 49.436706 ] } },
{ "type": "Feature", "properties": { "id": 2685423069.0, "name": "ФОП Таран Людмила Василівна ", "number": "162324-64-1465", "type": "АЛКОГОЛЬ", "from": 20160417, "to": 20170416, "address": "м. Черкаси, вул. Гоголя, 520", "status": "Видана", "lon": 32.092996, "lat": 49.422269 }, "geometry": { "type": "Point", "coordinates": [ 32.092996, 49.422269 ] } },
{ "type": "Feature", "properties": { "id": 3359606541.0, "name": "ФОП Хрипченко Вікторія Юріївна ", "number": "162324-64-1467", "type": "АЛКОГОЛЬ", "from": 20160331, "to": 20170330, "address": "м.Черкаси, перехрестя вул.Пастерівська та Пилипенка,біля буд.106", "status": "Видана", "lon": 32.05949, "lat": 49.42227 }, "geometry": { "type": "Point", "coordinates": [ 32.05949, 49.42227 ] } },
{ "type": "Feature", "properties": { "id": 2834900016.0, "name": "ФОП Захаренко Юрій Володимирович ", "number": "162324-64-1474", "type": "АЛКОГОЛЬ", "from": 20160401, "to": 20170331, "address": "м. Черкаси, вул.Тараскова,22\/1", "status": "Видана", "lon": 32.00709, "lat": 49.434533 }, "geometry": { "type": "Point", "coordinates": [ 32.00709, 49.434533 ] } },
{ "type": "Feature", "properties": { "id": 2400001795.0, "name": "ФОП Клименко Валерій Вікторович ", "number": "162324-64-1486", "type": "АЛКОГОЛЬ", "from": 20160412, "to": 20170411, "address": "м. Черкаси, вул. Боженко, 7", "status": "Видана", "lon": 32.0219371, "lat": 49.4626304 }, "geometry": { "type": "Point", "coordinates": [ 32.0219371, 49.4626304 ] } },
{ "type": "Feature", "properties": { "id": 2749701741.0, "name": "ФОП Шевцова Наталія Семенівна ", "number": "162324-64-1565", "type": "АЛКОГОЛЬ", "from": 20160415, "to": 20170414, "address": "м. Черкаси, вул. Ярославська, 26\/2", "status": "Видана", "lon": 32.011438, "lat": 49.434457 }, "geometry": { "type": "Point", "coordinates": [ 32.011438, 49.434457 ] } },
{ "type": "Feature", "properties": { "id": 39691520.0, "name": "ТОВ ОПТТОРГ-15", "number": "162324-64-1567", "type": "АЛКОГОЛЬ", "from": 20160408, "to": 20170407, "address": "м.Черкаси, вул.В.Ложешнікова (Крупської),буд.18", "status": "Видана", "lon": 32.0491263, "lat": 49.428859 }, "geometry": { "type": "Point", "coordinates": [ 32.0491263, 49.428859 ] } },
{ "type": "Feature", "properties": { "id": 39691520.0, "name": "ТОВ ОПТТОРГ-15", "number": "162324-64-1568", "type": "АЛКОГОЛЬ", "from": 20160408, "to": 20170407, "address": "м.Черкаси, вул.Калініна,буд.2", "status": "Видана", "lon": 32.084552, "lat": 49.432441 }, "geometry": { "type": "Point", "coordinates": [ 32.084552, 49.432441 ] } },
{ "type": "Feature", "properties": { "id": 39691520.0, "name": "ТОВ ОПТТОРГ-15", "number": "162324-64-1571", "type": "АЛКОГОЛЬ", "from": 20160408, "to": 20170407, "address": "м.Черкаси, вул.Конєва,буд.1", "status": "Видана", "lon": 32.020125, "lat": 49.423078 }, "geometry": { "type": "Point", "coordinates": [ 32.020125, 49.423078 ] } },
{ "type": "Feature", "properties": { "id": 2661514534.0, "name": "ФОП Кучугурний Сергій іванович ", "number": "162324-64-1572", "type": "АЛКОГОЛЬ", "from": 20160410, "to": 20170409, "address": "м. Черкаси, вул. Калініна, 98", "status": "Видана", "lon": 32.100677, "lat": 49.431299 }, "geometry": { "type": "Point", "coordinates": [ 32.100677, 49.431299 ] } },
{ "type": "Feature", "properties": { "id": 3308119938.0, "name": "ФОП Мороз Станіслав Юрійович ", "number": "162324-64-1574", "type": "АЛКОГОЛЬ", "from": 20160411, "to": 20170410, "address": "м.Черкаси, вул.Смілянська,96", "status": "Видана", "lon": 32.046742, "lat": 49.428287 }, "geometry": { "type": "Point", "coordinates": [ 32.046742, 49.428287 ] } },
{ "type": "Feature", "properties": { "id": 30487219.0, "name": "ТОВ  АТБ-маркет", "number": "162324-64-1577", "type": "АЛКОГОЛЬ", "from": 20160408, "to": 20170407, "address": "м. Черкаси, вул. Генерала Момота, 1", "status": "Видана", "lon": 32.017403, "lat": 49.454272 }, "geometry": { "type": "Point", "coordinates": [ 32.017403, 49.454272 ] } },
{ "type": "Feature", "properties": { "id": 2995604877.0, "name": "ФОП Грузін ігор Павлович ", "number": "162324-64-1581", "type": "АЛКОГОЛЬ", "from": 20160412, "to": 20170411, "address": "м. Черкаси, вул. Петровського, 172", "status": "Видана", "lon": 32.092835, "lat": 49.414457 }, "geometry": { "type": "Point", "coordinates": [ 32.092835, 49.414457 ] } },
{ "type": "Feature", "properties": { "id": 2987710348.0, "name": "ФОП Михайленко Ксенія Вікторівна ", "number": "162324-64-1587", "type": "АЛКОГОЛЬ", "from": 20160408, "to": 20170407, "address": "м.Черкаси, вул.Смілянська,44\/2", "status": "Видана", "lon": 32.061681, "lat": 49.439407 }, "geometry": { "type": "Point", "coordinates": [ 32.061681, 49.439407 ] } },
{ "type": "Feature", "properties": { "id": 2806312769.0, "name": "ФОП Володченко Оксана Володимирівна ", "number": "162324-64-1595", "type": "АЛКОГОЛЬ", "from": 20160413, "to": 20170412, "address": "м. Черкаси, вул. Чайковського, 49\/1", "status": "Видана", "lon": 32.05745, "lat": 49.41356 }, "geometry": { "type": "Point", "coordinates": [ 32.05745, 49.41356 ] } },
{ "type": "Feature", "properties": { "id": 2075512152.0, "name": "ФОП Кривошея Олександр Якович ", "number": "162324-64-1596", "type": "АЛКОГОЛЬ", "from": 20160412, "to": 20170411, "address": "м. Черкаси, вул. Чайковського, 49\/1", "status": "Видана", "lon": 32.05745, "lat": 49.41356 }, "geometry": { "type": "Point", "coordinates": [ 32.05745, 49.41356 ] } },
{ "type": "Feature", "properties": { "id": 3060715563.0, "name": "ФОП Каптан Галина Леонідівна ", "number": "162324-64-1597", "type": "АЛКОГОЛЬ", "from": 20160428, "to": 20170427, "address": "м.Черкаси, вул.Портова,16\/2", "status": "Видана", "lon": 32.10418, "lat": 49.42974 }, "geometry": { "type": "Point", "coordinates": [ 32.10418, 49.42974 ] } },
{ "type": "Feature", "properties": { "id": 2632421006.0, "name": "ФОП Копитько Вікторія Володимирівна ", "number": "162324-64-1631", "type": "АЛКОГОЛЬ", "from": 20160413, "to": 20170412, "address": "м. Черкаси, вул. Гайдара, 8", "status": "Видана", "lon": 32.004476, "lat": 49.434445 }, "geometry": { "type": "Point", "coordinates": [ 32.004476, 49.434445 ] } },
{ "type": "Feature", "properties": { "id": 3492503233.0, "name": "ФОП Мустафаєв Сеід Мазаір-Огли ", "number": "162324-64-1650", "type": "АЛКОГОЛЬ", "from": 20160414, "to": 20170413, "address": "м.Черкаси, вул.Гоголя,287", "status": "Видана", "lon": 32.064906, "lat": 49.438839 }, "geometry": { "type": "Point", "coordinates": [ 32.064906, 49.438839 ] } },
{ "type": "Feature", "properties": { "id": 2907101753.0, "name": "ФОП Шпильовий Володимир Володимирович ", "number": "162324-64-1651", "type": "АЛКОГОЛЬ", "from": 20160416, "to": 20170415, "address": "м. Черкаси, на розі вул.Смілянська -30 р.Перемоги", "status": "Видана", "lon": 32.0301135, "lat": 49.4153611 }, "geometry": { "type": "Point", "coordinates": [ 32.0301135, 49.4153611 ] } },
{ "type": "Feature", "properties": { "id": 3241016859.0, "name": "ФОП Стороженко ігор Володимирович ", "number": "162324-64-1668", "type": "АЛКОГОЛЬ", "from": 20160415, "to": 20170414, "address": "м.Черкаси, вул.Сурікова,4", "status": "Видана", "lon": 32.059821, "lat": 49.398003 }, "geometry": { "type": "Point", "coordinates": [ 32.059821, 49.398003 ] } },
{ "type": "Feature", "properties": { "id": 2696716259.0, "name": "ФОП Панасенко Максим Сергійович ", "number": "162324-64-1669", "type": "АЛКОГОЛЬ", "from": 20160420, "to": 20170419, "address": "м.Черкаси, вул.Хрещатик, 212", "status": "Видана", "lon": 32.06726, "lat": 49.442353 }, "geometry": { "type": "Point", "coordinates": [ 32.06726, 49.442353 ] } },
{ "type": "Feature", "properties": { "id": 2078304169.0, "name": "ФОП Головня Надія Павлівна ", "number": "162324-64-1670", "type": "АЛКОГОЛЬ", "from": 20160420, "to": 20170419, "address": "м. Черкаси, біля Дахнівського причалу № 3", "status": "Видана", "lon": 32.059759, "lat": 49.444433 }, "geometry": { "type": "Point", "coordinates": [ 32.059759, 49.444433 ] } },
{ "type": "Feature", "properties": { "id": 2391612506.0, "name": "ФОП Шапошник Світлана Валеріївна ", "number": "162324-64-1673", "type": "АЛКОГОЛЬ", "from": 20160415, "to": 20170414, "address": "м. Черкаси,  вул. Енгельса, 142", "status": "Видана", "lon": 32.059611, "lat": 49.4128006 }, "geometry": { "type": "Point", "coordinates": [ 32.059611, 49.4128006 ] } },
{ "type": "Feature", "properties": { "id": 2366013048.0, "name": "ФОП Балачій Олена В'ячеславівна ", "number": "162324-64-1712", "type": "АЛКОГОЛЬ", "from": 20160505, "to": 20170504, "address": "м. Черкаси, вул. 30 років Перемоги, 48", "status": "Видана", "lon": 32.00974, "lat": 49.427402 }, "geometry": { "type": "Point", "coordinates": [ 32.00974, 49.427402 ] } },
{ "type": "Feature", "properties": { "id": 2157519148.0, "name": "ФОП Досужа ірина Олександрівна ", "number": "162324-64-1713", "type": "АЛКОГОЛЬ", "from": 20160414, "to": 20170413, "address": "м.Черкаси, вул.М.Батицького,1", "status": "Видана", "lon": 32.01476, "lat": 49.43329 }, "geometry": { "type": "Point", "coordinates": [ 32.01476, 49.43329 ] } },
{ "type": "Feature", "properties": { "id": 38305461.0, "name": "ПП Черкаська Баварія", "number": "162324-64-1717", "type": "АЛКОГОЛЬ", "from": 20160419, "to": 20170418, "address": "м. Черкаси, вул. Сурікова, 1", "status": "Видана", "lon": 32.060828, "lat": 49.397563 }, "geometry": { "type": "Point", "coordinates": [ 32.060828, 49.397563 ] } },
{ "type": "Feature", "properties": { "id": 35850930.0, "name": "ТОВ Рейкарц  Хотел Менеджмент", "number": "162324-64-1718", "type": "АЛКОГОЛЬ", "from": 20160420, "to": 20170419, "address": "м. Черкаси, вул. Лазарєва, 6", "status": "Видана", "lon": 32.0593804, "lat": 49.444484 }, "geometry": { "type": "Point", "coordinates": [ 32.0593804, 49.444484 ] } },
{ "type": "Feature", "properties": { "id": 2685423069.0, "name": "ФОП Таран Людмила Василівна ", "number": "162324-64-1720", "type": "АЛКОГОЛЬ", "from": 20160417, "to": 20170416, "address": "м. Черкаси, вул. Хоменка, 18", "status": "Видана", "lon": 32.038352, "lat": 49.428738 }, "geometry": { "type": "Point", "coordinates": [ 32.038352, 49.428738 ] } },
{ "type": "Feature", "properties": { "id": 2685423069.0, "name": "ФОП Таран Людмила Василівна ", "number": "162324-64-1721", "type": "АЛКОГОЛЬ", "from": 20160417, "to": 20170416, "address": "м. Черкаси, вул. Горького, 11", "status": "Видана", "lon": 32.100192, "lat": 49.42909 }, "geometry": { "type": "Point", "coordinates": [ 32.100192, 49.42909 ] } },
{ "type": "Feature", "properties": { "id": 2750509740.0, "name": "ФОП Потужна Наталія Василівна ", "number": "162324-64-1723", "type": "АЛКОГОЛЬ", "from": 20160423, "to": 20170422, "address": "м. Черкаси, вул. Котовського, 97", "status": "Видана", "lon": 32.04464, "lat": 49.440385 }, "geometry": { "type": "Point", "coordinates": [ 32.04464, 49.440385 ] } },
{ "type": "Feature", "properties": { "id": 37400134.0, "name": "ТОВ Торговий дім Черкаська продовольча компанія", "number": "162324-64-1725", "type": "АЛКОГОЛЬ", "from": 20160426, "to": 20170425, "address": "м. Черкаси, вул. Гоголя, 253", "status": "Видана", "lon": 32.058303, "lat": 49.442341 }, "geometry": { "type": "Point", "coordinates": [ 32.058303, 49.442341 ] } },
{ "type": "Feature", "properties": { "id": 37400134.0, "name": "ТОВ Торговий дім Черкаська продовольча компанія", "number": "162324-64-1727", "type": "АЛКОГОЛЬ", "from": 20160426, "to": 20170425, "address": "м. Черкаси, вул. Гоголя, 258", "status": "Видана", "lon": 32.060899, "lat": 49.439899 }, "geometry": { "type": "Point", "coordinates": [ 32.060899, 49.439899 ] } },
{ "type": "Feature", "properties": { "id": 2375318950.0, "name": "ФОП Гасанов Ельшан Алі Огли ", "number": "162324-64-1770", "type": "АЛКОГОЛЬ", "from": 20160422, "to": 20170421, "address": "м. Черкаси, бул. Шевченка, 414", "status": "Видана", "lon": 32.091703, "lat": 49.425639 }, "geometry": { "type": "Point", "coordinates": [ 32.091703, 49.425639 ] } },
{ "type": "Feature", "properties": { "id": 2275613487.0, "name": "ФОП Труба ірина Миколаївна ", "number": "162324-64-1772", "type": "АЛКОГОЛЬ", "from": 20160422, "to": 20170421, "address": "м. Черкаси, вул. Василини, 154", "status": "Видана", "lon": 32.036339, "lat": 49.444673 }, "geometry": { "type": "Point", "coordinates": [ 32.036339, 49.444673 ] } },
{ "type": "Feature", "properties": { "id": 2763201590.0, "name": "ФОП Чухлян Руслан Олександрович ", "number": "162324-64-1782", "type": "АЛКОГОЛЬ", "from": 20160421, "to": 20170420, "address": "м. Черкаси, вул. Гагаріна, 47", "status": "Видана", "lon": 32.073889, "lat": 49.440567 }, "geometry": { "type": "Point", "coordinates": [ 32.073889, 49.440567 ] } },
{ "type": "Feature", "properties": { "id": 2422200032.0, "name": "ФОП Амелін Олег Юрійович ", "number": "162324-64-1783", "type": "АЛКОГОЛЬ", "from": 20160426, "to": 20170425, "address": "м.Черкаси, вул.Героїв Сталінграду,1", "status": "Видана", "lon": 32.1017788, "lat": 49.4358786 }, "geometry": { "type": "Point", "coordinates": [ 32.1017788, 49.4358786 ] } },
{ "type": "Feature", "properties": { "id": 2941907548.0, "name": "ФОП Дайбарська Олена Василівна ", "number": "162324-64-1818", "type": "АЛКОГОЛЬ", "from": 20160425, "to": 20170424, "address": "м. Черкаси, вул. Смілянська, 108", "status": "Видана", "lon": 32.0434, "lat": 49.425762 }, "geometry": { "type": "Point", "coordinates": [ 32.0434, 49.425762 ] } },
{ "type": "Feature", "properties": { "id": 3054017591.0, "name": "ФОП Ляшевський Владислав іванович ", "number": "162324-64-1822", "type": "АЛКОГОЛЬ", "from": 20160505, "to": 20170504, "address": "м. Черкаси, вул. Героїв Сталінграду, 1", "status": "Видана", "lon": 32.1017788, "lat": 49.4358786 }, "geometry": { "type": "Point", "coordinates": [ 32.1017788, 49.4358786 ] } },
{ "type": "Feature", "properties": { "id": 30603572.0, "name": "ПІІ АМіК УКРАЇНА", "number": "162324-64-1841", "type": "АЛКОГОЛЬ", "from": 20160509, "to": 20170508, "address": "м. Черкаси, вул. Одеська, 19", "status": "Видана", "lon": 32.031408, "lat": 49.444544 }, "geometry": { "type": "Point", "coordinates": [ 32.031408, 49.444544 ] } },
{ "type": "Feature", "properties": { "id": 30603572.0, "name": "ПІІ АМіК УКРАЇНА", "number": "162324-64-1842", "type": "АЛКОГОЛЬ", "from": 20160509, "to": 20170508, "address": "м. Черкаси, вул. Онопрієнко, 6", "status": "Видана", "lon": 32.011708, "lat": 49.45344 }, "geometry": { "type": "Point", "coordinates": [ 32.011708, 49.45344 ] } },
{ "type": "Feature", "properties": { "id": 2514900150.0, "name": "ФОП Гладкий Анатолій Георгійович ", "number": "162324-64-1859", "type": "АЛКОГОЛЬ", "from": 20160502, "to": 20170501, "address": "м. Черкаси, бул. Шевченко,352", "status": "Видана", "lon": 32.082585, "lat": 49.430654 }, "geometry": { "type": "Point", "coordinates": [ 32.082585, 49.430654 ] } },
{ "type": "Feature", "properties": { "id": 3534503360.0, "name": "ФОП Познацька Юлія Віталіївна ", "number": "162324-64-1876", "type": "АЛКОГОЛЬ", "from": 20160504, "to": 20170503, "address": "м.Черкаси, вул.Смілянська 159\/2", "status": "Видана", "lon": 32.022604, "lat": 49.407687 }, "geometry": { "type": "Point", "coordinates": [ 32.022604, 49.407687 ] } },
{ "type": "Feature", "properties": { "id": 22811526.0, "name": "ТОВ ЕКОЛКОМ  ЛТД", "number": "162324-64-1878", "type": "АЛКОГОЛЬ", "from": 20160424, "to": 20170423, "address": "м. Черкаси, бул. Шевченка, 474", "status": "Видана", "lon": 32.100668, "lat": 49.419421 }, "geometry": { "type": "Point", "coordinates": [ 32.100668, 49.419421 ] } },
{ "type": "Feature", "properties": { "id": 3008614691.0, "name": "ФОП Зуєв Юрій Юрійович ", "number": "162324-64-1879", "type": "АЛКОГОЛЬ", "from": 20160420, "to": 20170419, "address": "м.Черкаси, вул.Гагаріна,23", "status": "Видана", "lon": 32.071652, "lat": 49.446324 }, "geometry": { "type": "Point", "coordinates": [ 32.071652, 49.446324 ] } },
{ "type": "Feature", "properties": { "id": 3500004492.0, "name": "ФОП Рогальов Юрій Юрійович ", "number": "162324-64-1884", "type": "АЛКОГОЛЬ", "from": 20160424, "to": 20170423, "address": "м.Черкаси, вул.Гагаріна,15", "status": "Видана", "lon": 32.02204, "lat": 49.42508 }, "geometry": { "type": "Point", "coordinates": [ 32.02204, 49.42508 ] } },
{ "type": "Feature", "properties": { "id": 2255017969.0, "name": "ФОП Орлянський Володимир Володимирович ", "number": "162324-64-1885", "type": "АЛКОГОЛЬ", "from": 20160430, "to": 20170429, "address": "м. Черкаси, пров. Вишневий, 22 а", "status": "Видана", "lon": 32.094218, "lat": 49.412037 }, "geometry": { "type": "Point", "coordinates": [ 32.094218, 49.412037 ] } },
{ "type": "Feature", "properties": { "id": 30487219.0, "name": "ТОВ  АТБ-маркет", "number": "162324-64-1889", "type": "АЛКОГОЛЬ", "from": 20160527, "to": 20170526, "address": "м. Черкаси, бул. Шевченка, 239", "status": "Видана", "lon": 32.068823, "lat": 49.439694 }, "geometry": { "type": "Point", "coordinates": [ 32.068823, 49.439694 ] } },
{ "type": "Feature", "properties": { "id": 38903507.0, "name": "ДП Рітейл іст", "number": "162324-64-1922", "type": "АЛКОГОЛЬ", "from": 20160501, "to": 20170430, "address": "м.Черкаси, вул.Смілянська,2", "status": "Видана", "lon": 32.068014, "lat": 49.444597 }, "geometry": { "type": "Point", "coordinates": [ 32.068014, 49.444597 ] } },
{ "type": "Feature", "properties": { "id": 36264680.0, "name": "ТОВ ТС Плюс", "number": "162324-64-1937", "type": "АЛКОГОЛЬ", "from": 20160510, "to": 20170509, "address": "м. Черкаси, бул. Шевченка, 150", "status": "Видана", "lon": 32.04897, "lat": 49.449587 }, "geometry": { "type": "Point", "coordinates": [ 32.04897, 49.449587 ] } },
{ "type": "Feature", "properties": { "id": 3436211580.0, "name": "ФОП Удалова Тетяна Юріївна ", "number": "162324-64-1986", "type": "АЛКОГОЛЬ", "from": 20160501, "to": 20170430, "address": "м.Черкаси, вул.Смілянська,159\/3", "status": "Видана", "lon": 32.02635, "lat": 49.408567 }, "geometry": { "type": "Point", "coordinates": [ 32.02635, 49.408567 ] } },
{ "type": "Feature", "properties": { "id": 3165219339.0, "name": "ФОП Портнов Едуард Костянтинович ", "number": "162324-64-1987", "type": "АЛКОГОЛЬ", "from": 20160429, "to": 20170428, "address": "м.Черкаси, вул. В.Чорновола, 157", "status": "Видана", "lon": 32.069586, "lat": 49.417651 }, "geometry": { "type": "Point", "coordinates": [ 32.069586, 49.417651 ] } },
{ "type": "Feature", "properties": { "id": 2684410519.0, "name": "ФОП Перга Сергій Миколайович ", "number": "162324-64-1989", "type": "АЛКОГОЛЬ", "from": 20160429, "to": 20170428, "address": "м. Черкаси, вул. Г. Сталінграду, 11", "status": "Видана", "lon": 32.0960782, "lat": 49.4336837 }, "geometry": { "type": "Point", "coordinates": [ 32.0960782, 49.4336837 ] } },
{ "type": "Feature", "properties": { "id": 38903507.0, "name": "ДП Рітейл іст", "number": "162324-64-1996", "type": "АЛКОГОЛЬ", "from": 20160501, "to": 20170430, "address": "м.Черкаси, вул.Сумгаїтська,10", "status": "Видана", "lon": 32.017286, "lat": 49.437245 }, "geometry": { "type": "Point", "coordinates": [ 32.017286, 49.437245 ] } },
{ "type": "Feature", "properties": { "id": 2648821130.0, "name": "ФОП Хелетій Олег Павлович ", "number": "162324-64-2011", "type": "АЛКОГОЛЬ", "from": 20160429, "to": 20170428, "address": "м. Черкаси, вул.Гоголя,460", "status": "Видана", "lon": 32.086771, "lat": 49.425885 }, "geometry": { "type": "Point", "coordinates": [ 32.086771, 49.425885 ] } },
{ "type": "Feature", "properties": { "id": 3357168.0, "name": "КП Черкасиводоканал", "number": "162324-64-2031", "type": "АЛКОГОЛЬ", "from": 20160508, "to": 20170507, "address": "м. Черкаси, вул. Гетьмана Сагайдачного, 12", "status": "Видана", "lon": 32.059759, "lat": 49.428041 }, "geometry": { "type": "Point", "coordinates": [ 32.059759, 49.428041 ] } },
{ "type": "Feature", "properties": { "id": 38552929.0, "name": "ТОВ Лакі Страйк-1", "number": "162324-64-2059", "type": "АЛКОГОЛЬ", "from": 20160509, "to": 20170508, "address": "м. Черкаси, бул. Шевченка, 208", "status": "Видана", "lon": 32.0563, "lat": 49.445112 }, "geometry": { "type": "Point", "coordinates": [ 32.0563, 49.445112 ] } },
{ "type": "Feature", "properties": { "id": 2145502877.0, "name": "ФОП Окулов Андрій Костянтинович ", "number": "162324-64-2086", "type": "АЛКОГОЛЬ", "from": 20160518, "to": 20170517, "address": "м. Черкаси, вул. Ярославська,11", "status": "Видана", "lon": 32.011573, "lat": 49.435482 }, "geometry": { "type": "Point", "coordinates": [ 32.011573, 49.435482 ] } },
{ "type": "Feature", "properties": { "id": 2724401495.0, "name": "ФОП Бужилов Владислав іванович ", "number": "162324-64-2087", "type": "АЛКОГОЛЬ", "from": 20160506, "to": 20170505, "address": "м. Черкаси, вул. Чехова, 33", "status": "Видана", "lon": 32.099895, "lat": 49.424777 }, "geometry": { "type": "Point", "coordinates": [ 32.099895, 49.424777 ] } },
{ "type": "Feature", "properties": { "id": 3283313538.0, "name": "ФОП Путря Олександр Олександрович ", "number": "162324-64-2088", "type": "АЛКОГОЛЬ", "from": 20160507, "to": 20170506, "address": "м. Черкаси, вул. Хрещатик, 180", "status": "Видана", "lon": 32.057648, "lat": 49.447033 }, "geometry": { "type": "Point", "coordinates": [ 32.057648, 49.447033 ] } },
{ "type": "Feature", "properties": { "id": 2351502488.0, "name": "ФОП Настенко Валентина Андріївна ", "number": "162324-64-2091", "type": "АЛКОГОЛЬ", "from": 20160505, "to": 20170504, "address": "м.Черкаси, вул. Чорновола, 245", "status": "Видана", "lon": 32.0547189, "lat": 49.4071183 }, "geometry": { "type": "Point", "coordinates": [ 32.0547189, 49.4071183 ] } },
{ "type": "Feature", "properties": { "id": 3556806122.0, "name": "ФОП Дяченко Юлія Юріївна ", "number": "162324-64-2095", "type": "АЛКОГОЛЬ", "from": 20160505, "to": 20170504, "address": "м. Черкаси, вул. Гагаріна, 106", "status": "Видана", "lon": 32.071248, "lat": 49.444813 }, "geometry": { "type": "Point", "coordinates": [ 32.071248, 49.444813 ] } },
{ "type": "Feature", "properties": { "id": 2970616130.0, "name": "ФОП іщук Юрій Валерійович ", "number": "162324-64-2108", "type": "АЛКОГОЛЬ", "from": 20160508, "to": 20170507, "address": "м.Черкаси, вул.Благовісна, 469", "status": "Видана", "lon": 32.088729, "lat": 49.423031 }, "geometry": { "type": "Point", "coordinates": [ 32.088729, 49.423031 ] } },
{ "type": "Feature", "properties": { "id": 30955757.0, "name": "ТОВ  Каштан-Плюс", "number": "162324-64-2112", "type": "АЛКОГОЛЬ", "from": 20160512, "to": 20170511, "address": "м.Черкаси, вул. Благовісна,174", "status": "Видана", "lon": 32.059606, "lat": 49.438458 }, "geometry": { "type": "Point", "coordinates": [ 32.059606, 49.438458 ] } },
{ "type": "Feature", "properties": { "id": 30955757.0, "name": "ТОВ  Каштан-Плюс", "number": "162324-64-2113", "type": "АЛКОГОЛЬ", "from": 20160512, "to": 20170511, "address": "м.Черкаси, вул. Благовісна,174", "status": "Видана", "lon": 32.059606, "lat": 49.438458 }, "geometry": { "type": "Point", "coordinates": [ 32.059606, 49.438458 ] } },
{ "type": "Feature", "properties": { "id": 30955757.0, "name": "ТОВ  Каштан-Плюс", "number": "162324-64-2115", "type": "АЛКОГОЛЬ", "from": 20160512, "to": 20170511, "address": "м. Черкаси, вул. С.  Амброса, 2", "status": "Видана", "lon": 32.0911589, "lat": 49.4320842 }, "geometry": { "type": "Point", "coordinates": [ 32.0911589, 49.4320842 ] } },
{ "type": "Feature", "properties": { "id": 2644600257.0, "name": "ФОП Попудрібко Ярослав Борисович ", "number": "162324-64-2152", "type": "АЛКОГОЛЬ", "from": 20160516, "to": 20170515, "address": "м. Черкаси, вул. Луначарського, 17", "status": "Видана", "lon": 32.018122, "lat": 49.457376 }, "geometry": { "type": "Point", "coordinates": [ 32.018122, 49.457376 ] } },
{ "type": "Feature", "properties": { "id": 22805655.0, "name": "ТОВ Сільпо", "number": "162324-64-2156", "type": "АЛКОГОЛЬ", "from": 20160522, "to": 20170521, "address": "м. Черкаси, на розі вул. Г. Сталінграду та бул. Шевченка", "status": "Видана", "lon": 32.0799725, "lat": 49.4322979 }, "geometry": { "type": "Point", "coordinates": [ 32.0799725, 49.4322979 ] } },
{ "type": "Feature", "properties": { "id": 2538713653.0, "name": "ФОП Дюжев Олександр Валерійович ", "number": "162324-64-2171", "type": "АЛКОГОЛЬ", "from": 20160505, "to": 20170504, "address": "м. Черкаси, вул. Небесної Сотні, 16", "status": "Видана", "lon": 32.066038, "lat": 49.43909 }, "geometry": { "type": "Point", "coordinates": [ 32.066038, 49.43909 ] } },
{ "type": "Feature", "properties": { "id": 1644101980.0, "name": "ФОП Кущенко Ніла іванівна ", "number": "162324-64-2185", "type": "АЛКОГОЛЬ", "from": 20160517, "to": 20170516, "address": "м. Черкаси, вул. Козацька, 9", "status": "Видана", "lon": 32.098287, "lat": 49.438885 }, "geometry": { "type": "Point", "coordinates": [ 32.098287, 49.438885 ] } },
{ "type": "Feature", "properties": { "id": 37400134.0, "name": "ТОВ Торговий дім Черкаська продовольча компанія", "number": "162324-64-2187", "type": "АЛКОГОЛЬ", "from": 20160520, "to": 20170519, "address": "м. Черкаси, вул. Пастерівська, 42", "status": "Видана", "lon": 32.071239, "lat": 49.431469 }, "geometry": { "type": "Point", "coordinates": [ 32.071239, 49.431469 ] } },
{ "type": "Feature", "properties": { "id": 2441715803.0, "name": "ФОП Базилюк Зоріна Миколаївна ", "number": "162324-64-2199", "type": "АЛКОГОЛЬ", "from": 20160521, "to": 20170520, "address": "м. Черкаси, бул. Шевченка, 108", "status": "Видана", "lon": 32.043077, "lat": 49.452861 }, "geometry": { "type": "Point", "coordinates": [ 32.043077, 49.452861 ] } },
{ "type": "Feature", "properties": { "id": 3226519712.0, "name": "ФОП Бондаренко Олег ігорович ", "number": "162324-64-2220", "type": "АЛКОГОЛЬ", "from": 20160524, "to": 20170523, "address": "м. Черкаси, вул. Хрещатик. 219", "status": "Видана", "lon": 32.061537, "lat": 49.446114 }, "geometry": { "type": "Point", "coordinates": [ 32.061537, 49.446114 ] } },
{ "type": "Feature", "properties": { "id": 36280938.0, "name": "ТОВ Фудпленет", "number": "162324-64-2221", "type": "АЛКОГОЛЬ", "from": 20160601, "to": 20170531, "address": "м.Черкаси, вул.Гагаріна,55\/1", "status": "Видана", "lon": 32.076243, "lat": 49.439208 }, "geometry": { "type": "Point", "coordinates": [ 32.076243, 49.439208 ] } },
{ "type": "Feature", "properties": { "id": 36280938.0, "name": "ТОВ Фудпленет", "number": "162324-64-2222", "type": "АЛКОГОЛЬ", "from": 20160520, "to": 20170519, "address": "м. Черкаси, вул. Гагаріна, 55\/1", "status": "Видана", "lon": 32.076243, "lat": 49.439208 }, "geometry": { "type": "Point", "coordinates": [ 32.076243, 49.439208 ] } },
{ "type": "Feature", "properties": { "id": 36280938.0, "name": "ТОВ Фудпленет", "number": "162324-64-2224", "type": "АЛКОГОЛЬ", "from": 20160520, "to": 20170519, "address": "м. Черкаси, вул. Б. Хмельницького, 55", "status": "Видана", "lon": 32.067439, "lat": 49.430701 }, "geometry": { "type": "Point", "coordinates": [ 32.067439, 49.430701 ] } },
{ "type": "Feature", "properties": { "id": 2650612698.0, "name": "ФОП Скобін Микола Вячеславович ", "number": "162324-64-2249", "type": "АЛКОГОЛЬ", "from": 20160530, "to": 20170529, "address": "м. Черкаси, бул. Шевченка, 345\/10", "status": "Видана", "lon": 32.089915, "lat": 49.427795 }, "geometry": { "type": "Point", "coordinates": [ 32.089915, 49.427795 ] } },
{ "type": "Feature", "properties": { "id": 39691520.0, "name": "ТОВ ОПТТОРГ-15", "number": "162324-64-2253", "type": "АЛКОГОЛЬ", "from": 20160521, "to": 20170520, "address": "м. Черкаси, вул. Чигиринська, 40", "status": "Видана", "lon": 32.103794, "lat": 49.412371 }, "geometry": { "type": "Point", "coordinates": [ 32.103794, 49.412371 ] } },
{ "type": "Feature", "properties": { "id": 39691520.0, "name": "ТОВ ОПТТОРГ-15", "number": "162324-64-2255", "type": "АЛКОГОЛЬ", "from": 20160521, "to": 20170520, "address": "м.Черкаси, вул. Можайського\/ільїна, 60\/54", "status": "Видана", "lon": 32.0266499, "lat": 49.4538713 }, "geometry": { "type": "Point", "coordinates": [ 32.0266499, 49.4538713 ] } },
{ "type": "Feature", "properties": { "id": 21388586.0, "name": "ПП Сласвіт", "number": "162324-64-2317", "type": "АЛКОГОЛЬ", "from": 20160527, "to": 20170526, "address": "м. Черкаси, вул. Вернигори, 4", "status": "Видана", "lon": 32.048413, "lat": 49.427355 }, "geometry": { "type": "Point", "coordinates": [ 32.048413, 49.427355 ] } },
{ "type": "Feature", "properties": { "id": 2988105537.0, "name": "ФОП Арсенюк Максим Володимирович ", "number": "162324-64-2318", "type": "АЛКОГОЛЬ", "from": 20160523, "to": 20170522, "address": "м.Черкаси ,вул.Гагаріна (спуск парк \"Соснівський\")", "status": "Видана", "lon": 32.060872, "lat": 49.451127 }, "geometry": { "type": "Point", "coordinates": [ 32.060872, 49.451127 ] } },
{ "type": "Feature", "properties": { "id": 2644600257.0, "name": "ФОП Попудрібко Ярослав Борисович ", "number": "162324-64-2322", "type": "АЛКОГОЛЬ", "from": 20160523, "to": 20170522, "address": "м. Черкаси, вул. Вернигори, 2", "status": "Видана", "lon": 32.049033, "lat": 49.42698 }, "geometry": { "type": "Point", "coordinates": [ 32.049033, 49.42698 ] } },
{ "type": "Feature", "properties": { "id": 3112914799.0, "name": "ФОП Муранов Микола Сергійович ", "number": "162324-64-2357", "type": "АЛКОГОЛЬ", "from": 20160601, "to": 20170531, "address": "м. Черкаси, вул. Гагаріна, 120\/1", "status": "Видана", "lon": 32.07247, "lat": 49.44165 }, "geometry": { "type": "Point", "coordinates": [ 32.07247, 49.44165 ] } },
{ "type": "Feature", "properties": { "id": 2339002108.0, "name": "ФОП Захаревич Людмила Миколаївна ", "number": "162324-64-2367", "type": "АЛКОГОЛЬ", "from": 20160527, "to": 20170526, "address": "м. Черкаси, вул. Я.Галана, 9", "status": "Видана", "lon": 32.012183, "lat": 49.456903 }, "geometry": { "type": "Point", "coordinates": [ 32.012183, 49.456903 ] } },
{ "type": "Feature", "properties": { "id": 2509802142.0, "name": "ФОП Опаренко Надія Олексіївна ", "number": "162324-64-2393", "type": "АЛКОГОЛЬ", "from": 20160528, "to": 20170527, "address": "м.Черкаси, вул.Небесної Сотні,30", "status": "Видана", "lon": 32.06381, "lat": 49.437339 }, "geometry": { "type": "Point", "coordinates": [ 32.06381, 49.437339 ] } },
{ "type": "Feature", "properties": { "id": 36262243.0, "name": "ТОВ Торгоснова", "number": "162324-64-2396", "type": "АЛКОГОЛЬ", "from": 20160531, "to": 20170530, "address": "м. Черкаси, вул. Вернигори, 20\/1", "status": "Видана", "lon": 32.041916, "lat": 49.4302773 }, "geometry": { "type": "Point", "coordinates": [ 32.041916, 49.4302773 ] } },
{ "type": "Feature", "properties": { "id": 2421711967.0, "name": "ФОП Щериля Леся Михайлівна ", "number": "162324-64-2400", "type": "АЛКОГОЛЬ", "from": 20160621, "to": 20170620, "address": "м.Черкаси, вул.2-го Українського Фронту,36", "status": "Видана", "lon": 31.977608, "lat": 49.485733 }, "geometry": { "type": "Point", "coordinates": [ 31.977608, 49.485733 ] } },
{ "type": "Feature", "properties": { "id": 2421711967.0, "name": "ФОП Щериля Леся Михайлівна ", "number": "162324-64-2402", "type": "АЛКОГОЛЬ", "from": 20160601, "to": 20170531, "address": "м. Черкаси, вул. 2-го Українського Фронту, 36", "status": "Видана", "lon": 31.977608, "lat": 49.485733 }, "geometry": { "type": "Point", "coordinates": [ 31.977608, 49.485733 ] } },
{ "type": "Feature", "properties": { "id": 1740801742.0, "name": "ФОП Рубан Ольга Кирилівна ", "number": "162324-64-2404", "type": "АЛКОГОЛЬ", "from": 20160523, "to": 20170522, "address": "м.Черкаси, вул. Дахнівська, зупинка парк 50 річчя", "status": "Видана", "lon": 32.026211, "lat": 49.4613378 }, "geometry": { "type": "Point", "coordinates": [ 32.026211, 49.4613378 ] } },
{ "type": "Feature", "properties": { "id": 3207216843.0, "name": "ФОП Скороходова Тамара Павлівна ", "number": "162324-64-2405", "type": "АЛКОГОЛЬ", "from": 20160601, "to": 20170531, "address": "м.Черкаси, вул.Смілянська,123", "status": "Видана", "lon": 32.038792, "lat": 49.420312 }, "geometry": { "type": "Point", "coordinates": [ 32.038792, 49.420312 ] } },
{ "type": "Feature", "properties": { "id": 2779317968.0, "name": "ФОП Шевченко інна Вячеславівна ", "number": "162324-64-2407", "type": "АЛКОГОЛЬ", "from": 20160601, "to": 20170531, "address": "м.Черкаси, вул.В.Чорновола,37", "status": "Видана", "lon": 32.0827736, "lat": 49.4282681 }, "geometry": { "type": "Point", "coordinates": [ 32.0827736, 49.4282681 ] } },
{ "type": "Feature", "properties": { "id": 2070315876.0, "name": "ФОП Фєдін Валерій Олександрович ", "number": "162324-64-2408", "type": "АЛКОГОЛЬ", "from": 20160603, "to": 20170602, "address": "м. Черкаси, бул. Шевченка, 351", "status": "Видана", "lon": 32.0906745, "lat": 49.4273292 }, "geometry": { "type": "Point", "coordinates": [ 32.0906745, 49.4273292 ] } },
{ "type": "Feature", "properties": { "id": 36090827.0, "name": "ПП Альтамар", "number": "162324-64-2434", "type": "АЛКОГОЛЬ", "from": 20160601, "to": 20170531, "address": "м. Черкаси, бул. Шевченка, 150", "status": "Видана", "lon": 32.04897, "lat": 49.449587 }, "geometry": { "type": "Point", "coordinates": [ 32.04897, 49.449587 ] } },
{ "type": "Feature", "properties": { "id": 3084615366.0, "name": "ФОП Артерчук Катерина Володимирівна ", "number": "162324-64-2445", "type": "АЛКОГОЛЬ", "from": 20160601, "to": 20170531, "address": "м. Черкаси, вул. Пацаєва, 7", "status": "Видана", "lon": 32.107001, "lat": 49.409481 }, "geometry": { "type": "Point", "coordinates": [ 32.107001, 49.409481 ] } },
{ "type": "Feature", "properties": { "id": 24354040.0, "name": "ПСП Ньютон", "number": "162324-64-2447", "type": "АЛКОГОЛЬ", "from": 20160601, "to": 20170531, "address": "м. Черкаси, вул. Смілянська, 131", "status": "Видана", "lon": 32.033528, "lat": 49.41686 }, "geometry": { "type": "Point", "coordinates": [ 32.033528, 49.41686 ] } },
{ "type": "Feature", "properties": { "id": 203826.0, "name": "ПАТ Азот", "number": "162324-64-2448", "type": "АЛКОГОЛЬ", "from": 20160603, "to": 20170602, "address": "м. Черкаси, вул. Першотравнева, 72", "status": "Видана", "lon": 32.106552, "lat": 49.392761 }, "geometry": { "type": "Point", "coordinates": [ 32.106552, 49.392761 ] } },
{ "type": "Feature", "properties": { "id": 2271800384.0, "name": "ФОП Мусатова Наталія Максимівна ", "number": "162324-64-2449", "type": "АЛКОГОЛЬ", "from": 20160601, "to": 20170531, "address": "м. Черкаси, бул. Шевченка, 367", "status": "Видана", "lon": 32.092296, "lat": 49.426055 }, "geometry": { "type": "Point", "coordinates": [ 32.092296, 49.426055 ] } },
{ "type": "Feature", "properties": { "id": 3281215594.0, "name": "ФОП Славінський Вячеслав Анатолійович ", "number": "162324-64-2450", "type": "АЛКОГОЛЬ", "from": 20160601, "to": 20170531, "address": "м.Черкаси, вул. Смілянська,159", "status": "Видана", "lon": 32.024167, "lat": 49.409129 }, "geometry": { "type": "Point", "coordinates": [ 32.024167, 49.409129 ] } },
{ "type": "Feature", "properties": { "id": 3281215594.0, "name": "ФОП Славінський Вячеслав Анатолійович ", "number": "162324-64-2452", "type": "АЛКОГОЛЬ", "from": 20160601, "to": 20170531, "address": "м.Черкаси, вул. Смілянська,149", "status": "Видана", "lon": 32.027338, "lat": 49.411726 }, "geometry": { "type": "Point", "coordinates": [ 32.027338, 49.411726 ] } },
{ "type": "Feature", "properties": { "id": 3308708654.0, "name": "ФОП Мартиросян Андранік Артакович ", "number": "162324-64-2498", "type": "АЛКОГОЛЬ", "from": 20160603, "to": 20170602, "address": "м. Черкаси, вул.Фрунзе,145", "status": "Видана", "lon": 32.081471, "lat": 49.434831 }, "geometry": { "type": "Point", "coordinates": [ 32.081471, 49.434831 ] } },
{ "type": "Feature", "properties": { "id": 2897818381.0, "name": "ФОП Валюк Руслана іванівна ", "number": "162324-64-2508", "type": "АЛКОГОЛЬ", "from": 20160606, "to": 20170605, "address": "м. Черкаси, вул. Смілянська, 149", "status": "Видана", "lon": 32.027338, "lat": 49.411726 }, "geometry": { "type": "Point", "coordinates": [ 32.027338, 49.411726 ] } },
{ "type": "Feature", "properties": { "id": 2689713325.0, "name": "ФОП В'юнова Оксана Валеріївна ", "number": "162324-64-2515", "type": "АЛКОГОЛЬ", "from": 20160605, "to": 20170604, "address": "м. Черкаси, перехрестя вулиці Фрунзе та пров. Грузевича", "status": "Видана", "lon": 32.0691045, "lat": 49.4434779 }, "geometry": { "type": "Point", "coordinates": [ 32.0691045, 49.4434779 ] } },
{ "type": "Feature", "properties": { "id": 35850930.0, "name": "ТОВ Рейкарц  Хотел Менеджмент", "number": "162324-64-2540", "type": "АЛКОГОЛЬ", "from": 20160613, "to": 20170612, "address": "м. Черкаси, вул. Лазарєва, 6", "status": "Видана", "lon": 32.05938, "lat": 49.4444845 }, "geometry": { "type": "Point", "coordinates": [ 32.05938, 49.4444845 ] } },
{ "type": "Feature", "properties": { "id": 30487219.0, "name": "ТОВ  АТБ-маркет", "number": "162324-64-2541", "type": "АЛКОГОЛЬ", "from": 20160610, "to": 20170609, "address": "м. Черкаси, бул. Шевченко, 305", "status": "Видана", "lon": 32.0821, "lat": 49.432201 }, "geometry": { "type": "Point", "coordinates": [ 32.0821, 49.432201 ] } },
{ "type": "Feature", "properties": { "id": 21364812.0, "name": "КОЛП ГХ Кафе Рибка", "number": "162324-64-2569", "type": "АЛКОГОЛЬ", "from": 20160606, "to": 20170605, "address": "м. Черкаси, вул. Гагаріна, 1", "status": "Видана", "lon": 32.034202, "lat": 49.464027 }, "geometry": { "type": "Point", "coordinates": [ 32.034202, 49.464027 ] } },
{ "type": "Feature", "properties": { "id": 3313115264.0, "name": "ФОП Буднік Юлія Сергіївна ", "number": "162324-64-2605", "type": "АЛКОГОЛЬ", "from": 20160605, "to": 20170604, "address": "м.Черкаси, бул.Шевченка,385", "status": "Видана", "lon": 32.096042, "lat": 49.42432 }, "geometry": { "type": "Point", "coordinates": [ 32.096042, 49.42432 ] } },
{ "type": "Feature", "properties": { "id": 2286912624.0, "name": "ФОП Петрова Світлана Олексіївна ", "number": "162324-64-2608", "type": "АЛКОГОЛЬ", "from": 20160613, "to": 20170612, "address": "м. Черкаси, вул. Чигиринська, 23", "status": "Видана", "lon": 32.114897, "lat": 49.406533 }, "geometry": { "type": "Point", "coordinates": [ 32.114897, 49.406533 ] } },
{ "type": "Feature", "properties": { "id": 38161805.0, "name": "ТОВ ХОРЕКА - СЕРВіС", "number": "162324-64-2612", "type": "АЛКОГОЛЬ", "from": 20160710, "to": 20170709, "address": "м. Черкаси, вул. Громова, 138", "status": "Видана", "lon": 32.045556, "lat": 49.416544 }, "geometry": { "type": "Point", "coordinates": [ 32.045556, 49.416544 ] } },
{ "type": "Feature", "properties": { "id": 1644101980.0, "name": "ФОП Кущенко Ніла іванівна ", "number": "162324-64-2642", "type": "АЛКОГОЛЬ", "from": 20160713, "to": 20170712, "address": "м. Черкаси, вул. Гагаріна, біля буд. №158", "status": "Видана", "lon": 32.085127, "lat": 49.434427 }, "geometry": { "type": "Point", "coordinates": [ 32.085127, 49.434427 ] } },
{ "type": "Feature", "properties": { "id": 2286912624.0, "name": "ФОП Петрова Світлана Олексіївна ", "number": "162324-64-2643", "type": "АЛКОГОЛЬ", "from": 20160701, "to": 20170630, "address": "м. Черкаси, вул. Петровського 160\/1", "status": "Видана", "lon": 32.085145, "lat": 49.418694 }, "geometry": { "type": "Point", "coordinates": [ 32.085145, 49.418694 ] } },
{ "type": "Feature", "properties": { "id": 3007720246.0, "name": "ФОП Рожко Юлія Володимирівна ", "number": "162324-64-2644", "type": "АЛКОГОЛЬ", "from": 20160613, "to": 20170612, "address": "м.Черкаси, вул.Енгельса, 158", "status": "Видана", "lon": 32.058194, "lat": 49.4109593 }, "geometry": { "type": "Point", "coordinates": [ 32.058194, 49.4109593 ] } },
{ "type": "Feature", "properties": { "id": 2944020664.0, "name": "ФОП Зик Світлана Леонідівна ", "number": "162324-64-2649", "type": "АЛКОГОЛЬ", "from": 20160614, "to": 20170613, "address": "м.Черкаси, бул.Шевченка,385", "status": "Видана", "lon": 32.096042, "lat": 49.42432 }, "geometry": { "type": "Point", "coordinates": [ 32.096042, 49.42432 ] } },
{ "type": "Feature", "properties": { "id": 39534779.0, "name": "ТОВ Реста-Камп", "number": "162324-64-2650", "type": "АЛКОГОЛЬ", "from": 20160614, "to": 20170613, "address": "м.Черкаси, бул.Шевченка,385", "status": "Видана", "lon": 32.096042, "lat": 49.42432 }, "geometry": { "type": "Point", "coordinates": [ 32.096042, 49.42432 ] } },
{ "type": "Feature", "properties": { "id": 2650612698.0, "name": "ФОП Скобін Микола Вячеславович ", "number": "162324-64-2653", "type": "АЛКОГОЛЬ", "from": 20160615, "to": 20170614, "address": "м.Черкаси, вул.Гоголя,270, Центральний ринок", "status": "Видана", "lon": 32.064259, "lat": 49.43844 }, "geometry": { "type": "Point", "coordinates": [ 32.064259, 49.43844 ] } },
{ "type": "Feature", "properties": { "id": 2644600257.0, "name": "ФОП Попудрібко Ярослав Борисович ", "number": "162324-64-2666", "type": "АЛКОГОЛЬ", "from": 20160614, "to": 20170613, "address": "м. Черкаси, вул. Гагаріна, 29", "status": "Видана", "lon": 32.073323, "lat": 49.445838 }, "geometry": { "type": "Point", "coordinates": [ 32.073323, 49.445838 ] } },
{ "type": "Feature", "properties": { "id": 37715680.0, "name": "ТОВ Черкасихліб ЛТД", "number": "162324-64-2731", "type": "АЛКОГОЛЬ", "from": 20160701, "to": 20170630, "address": "м. Черкаси, вул. 30р. Перемоги, 4", "status": "Видана", "lon": 32.0293238, "lat": 49.4166253 }, "geometry": { "type": "Point", "coordinates": [ 32.0293238, 49.4166253 ] } },
{ "type": "Feature", "properties": { "id": 37715680.0, "name": "ТОВ Черкасихліб ЛТД", "number": "162324-64-2732", "type": "АЛКОГОЛЬ", "from": 20160701, "to": 20170630, "address": "м. Черкаси, вул. Вербовецького, 5", "status": "Видана", "lon": 32.10524, "lat": 49.425187 }, "geometry": { "type": "Point", "coordinates": [ 32.10524, 49.425187 ] } },
{ "type": "Feature", "properties": { "id": 37715680.0, "name": "ТОВ Черкасихліб ЛТД", "number": "162324-64-2733", "type": "АЛКОГОЛЬ", "from": 20160701, "to": 20170630, "address": "м. Черкаси, вул. Сєдова біля перехрестя з бул. Шевченка", "status": "Видана", "lon": 32.0869095, "lat": 49.4282669 }, "geometry": { "type": "Point", "coordinates": [ 32.0869095, 49.4282669 ] } },
{ "type": "Feature", "properties": { "id": 37715680.0, "name": "ТОВ Черкасихліб ЛТД", "number": "162324-64-2734", "type": "АЛКОГОЛЬ", "from": 20160701, "to": 20170630, "address": "м. Черкаси, вул. Сєдова, 50", "status": "Видана", "lon": 32.084687, "lat": 49.426535 }, "geometry": { "type": "Point", "coordinates": [ 32.084687, 49.426535 ] } },
{ "type": "Feature", "properties": { "id": 37715680.0, "name": "ТОВ Черкасихліб ЛТД", "number": "162324-64-2735", "type": "АЛКОГОЛЬ", "from": 20160701, "to": 20170630, "address": "м. Черкаси, вул. ільїна, 341", "status": "Видана", "lon": 32.06805, "lat": 49.431838 }, "geometry": { "type": "Point", "coordinates": [ 32.06805, 49.431838 ] } },
{ "type": "Feature", "properties": { "id": 37715680.0, "name": "ТОВ Черкасихліб ЛТД", "number": "162324-64-2736", "type": "АЛКОГОЛЬ", "from": 20160701, "to": 20170630, "address": "м. Черкаси, вул. Котовського, 95", "status": "Видана", "lon": 32.045619, "lat": 49.441398 }, "geometry": { "type": "Point", "coordinates": [ 32.045619, 49.441398 ] } },
{ "type": "Feature", "properties": { "id": 37715680.0, "name": "ТОВ Черкасихліб ЛТД", "number": "162324-64-2737", "type": "АЛКОГОЛЬ", "from": 20160701, "to": 20170630, "address": "м. Черкаси, вул. Сєдова, 65", "status": "Видана", "lon": 32.082791, "lat": 49.424267 }, "geometry": { "type": "Point", "coordinates": [ 32.082791, 49.424267 ] } },
{ "type": "Feature", "properties": { "id": 37715680.0, "name": "ТОВ Черкасихліб ЛТД", "number": "162324-64-2738", "type": "АЛКОГОЛЬ", "from": 20160701, "to": 20170630, "address": "м. Черкаси, вул. Пушкіна, 39", "status": "Видана", "lon": 32.05171, "lat": 49.450301 }, "geometry": { "type": "Point", "coordinates": [ 32.05171, 49.450301 ] } },
{ "type": "Feature", "properties": { "id": 37715680.0, "name": "ТОВ Черкасихліб ЛТД", "number": "162324-64-2739", "type": "АЛКОГОЛЬ", "from": 20160701, "to": 20170630, "address": "м. Черкаси, вул. Калініна, 47", "status": "Видана", "lon": 32.094964, "lat": 49.432834 }, "geometry": { "type": "Point", "coordinates": [ 32.094964, 49.432834 ] } },
{ "type": "Feature", "properties": { "id": 37715680.0, "name": "ТОВ Черкасихліб ЛТД", "number": "162324-64-2740", "type": "АЛКОГОЛЬ", "from": 20160701, "to": 20170630, "address": "м. Черкаси, вул. Г.Сталінграда, 18", "status": "Видана", "lon": 32.0933016, "lat": 49.4345685 }, "geometry": { "type": "Point", "coordinates": [ 32.0933016, 49.4345685 ] } },
{ "type": "Feature", "properties": { "id": 37715680.0, "name": "ТОВ Черкасихліб ЛТД", "number": "162324-64-2741", "type": "АЛКОГОЛЬ", "from": 20160701, "to": 20170630, "address": "м.Черкаси, вул.Орджонікідзе, 92", "status": "Видана", "lon": 32.104216, "lat": 49.423488 }, "geometry": { "type": "Point", "coordinates": [ 32.104216, 49.423488 ] } },
{ "type": "Feature", "properties": { "id": 37715680.0, "name": "ТОВ Черкасихліб ЛТД", "number": "162324-64-2742", "type": "АЛКОГОЛЬ", "from": 20160701, "to": 20170630, "address": "м. Черкаси, вул. Гагаріна, 21", "status": "Видана", "lon": 32.071652, "lat": 49.446324 }, "geometry": { "type": "Point", "coordinates": [ 32.071652, 49.446324 ] } },
{ "type": "Feature", "properties": { "id": 37715680.0, "name": "ТОВ Черкасихліб ЛТД", "number": "162324-64-2743", "type": "АЛКОГОЛЬ", "from": 20160701, "to": 20170630, "address": "м. Черкаси, вул. Гагаріна, 51", "status": "Видана", "lon": 32.075605, "lat": 49.440754 }, "geometry": { "type": "Point", "coordinates": [ 32.075605, 49.440754 ] } },
{ "type": "Feature", "properties": { "id": 37715680.0, "name": "ТОВ Черкасихліб ЛТД", "number": "162324-64-2744", "type": "АЛКОГОЛЬ", "from": 20160701, "to": 20170630, "address": "м. Черкаси, вул. Гагаріна, 71", "status": "Видана", "lon": 32.078318, "lat": 49.438839 }, "geometry": { "type": "Point", "coordinates": [ 32.078318, 49.438839 ] } },
{ "type": "Feature", "properties": { "id": 37715680.0, "name": "ТОВ Черкасихліб ЛТД", "number": "162324-64-2745", "type": "АЛКОГОЛЬ", "from": 20160701, "to": 20170630, "address": "м. Черкаси, вул. Невського, 19", "status": "Видана", "lon": 32.05445, "lat": 49.422451 }, "geometry": { "type": "Point", "coordinates": [ 32.05445, 49.422451 ] } },
{ "type": "Feature", "properties": { "id": 37715680.0, "name": "ТОВ Черкасихліб ЛТД", "number": "162324-64-2746", "type": "АЛКОГОЛЬ", "from": 20160701, "to": 20170630, "address": "м.Черкаси, вул. ільїна, 248", "status": "Видана", "lon": 32.065292, "lat": 49.432623 }, "geometry": { "type": "Point", "coordinates": [ 32.065292, 49.432623 ] } },
{ "type": "Feature", "properties": { "id": 37715680.0, "name": "ТОВ Черкасихліб ЛТД", "number": "162324-64-2747", "type": "АЛКОГОЛЬ", "from": 20160701, "to": 20170630, "address": "м.Черкаси, вул. Чигиринська, 7", "status": "Видана", "lon": 32.101755, "lat": 49.415559 }, "geometry": { "type": "Point", "coordinates": [ 32.101755, 49.415559 ] } },
{ "type": "Feature", "properties": { "id": 37400134.0, "name": "ТОВ Торговий дім Черкаська продовольча компанія", "number": "162324-64-2748", "type": "АЛКОГОЛЬ", "from": 20160620, "to": 20170619, "address": "м. Черкаси, вул. Благовісна, 463", "status": "Видана", "lon": 32.08766, "lat": 49.42357 }, "geometry": { "type": "Point", "coordinates": [ 32.08766, 49.42357 ] } },
{ "type": "Feature", "properties": { "id": 2886907001.0, "name": "ФОП Зозуля Оксана Григорівна ", "number": "162324-64-2750", "type": "АЛКОГОЛЬ", "from": 20160701, "to": 20170630, "address": "м. Черкаси, вул. Ярославська, 11", "status": "Видана", "lon": 32.011573, "lat": 49.435482 }, "geometry": { "type": "Point", "coordinates": [ 32.011573, 49.435482 ] } },
{ "type": "Feature", "properties": { "id": 2175619686.0, "name": "ФОП Афімченко Наталія Михайлівна ", "number": "162324-64-2758", "type": "АЛКОГОЛЬ", "from": 20160627, "to": 20170626, "address": "м. Черкаси, вул. Леніна, 10", "status": "Видана", "lon": 32.067736, "lat": 49.440379 }, "geometry": { "type": "Point", "coordinates": [ 32.067736, 49.440379 ] } },
{ "type": "Feature", "properties": { "id": 2789501224.0, "name": "ФОП Малахова Тетяна Вікторівна ", "number": "162324-64-2833", "type": "АЛКОГОЛЬ", "from": 20160701, "to": 20170630, "address": "м. Черкаси, вул. Добровольського, 5", "status": "Видана", "lon": 32.102797, "lat": 49.419591 }, "geometry": { "type": "Point", "coordinates": [ 32.102797, 49.419591 ] } },
{ "type": "Feature", "properties": { "id": 2513201870.0, "name": "ФОП Прокопенко Віталій Вікторович ", "number": "162324-64-2834", "type": "АЛКОГОЛЬ", "from": 20160619, "to": 20170618, "address": "м. Черкаси, вул. О. Дашкевича, 39", "status": "Видана", "lon": 32.059561, "lat": 49.440795 }, "geometry": { "type": "Point", "coordinates": [ 32.059561, 49.440795 ] } },
{ "type": "Feature", "properties": { "id": 2275613487.0, "name": "ФОП Труба ірина Миколаївна ", "number": "162324-64-2835", "type": "АЛКОГОЛЬ", "from": 20160701, "to": 20170630, "address": "м. Черкаси, вул. Благовісна, біля будинку № 181", "status": "Видана", "lon": 32.05118, "lat": 49.443794 }, "geometry": { "type": "Point", "coordinates": [ 32.05118, 49.443794 ] } },
{ "type": "Feature", "properties": { "id": 2759510127.0, "name": "ФОП Савченюк Наталія Валеріївна ", "number": "162324-64-2855", "type": "АЛКОГОЛЬ", "from": 20160701, "to": 20170630, "address": "м. Черкаси, бул. Шевченка, 208\/1", "status": "Видана", "lon": 32.0563, "lat": 49.445112 }, "geometry": { "type": "Point", "coordinates": [ 32.0563, 49.445112 ] } },
{ "type": "Feature", "properties": { "id": 2587701601.0, "name": "ФОП Прохоренко Натела Юріївна ", "number": "162324-64-2865", "type": "АЛКОГОЛЬ", "from": 20160701, "to": 20170630, "address": "м. Черкаси, вул. Б. Вишневецького, 47", "status": "Видана", "lon": 32.0551195, "lat": 49.4430935 }, "geometry": { "type": "Point", "coordinates": [ 32.0551195, 49.4430935 ] } },
{ "type": "Feature", "properties": { "id": 2685423069.0, "name": "ФОП Таран Людмила Василівна ", "number": "162324-64-2867", "type": "АЛКОГОЛЬ", "from": 20160707, "to": 20170706, "address": "м. Черкаси, вул. Ватутіна, 237", "status": "Видана", "lon": 32.096949, "lat": 49.408672 }, "geometry": { "type": "Point", "coordinates": [ 32.096949, 49.408672 ] } },
{ "type": "Feature", "properties": { "id": 2360705726.0, "name": "ФОП Литвиненко Жанна Юріївна ", "number": "162324-64-2902", "type": "АЛКОГОЛЬ", "from": 20160617, "to": 20170616, "address": "м.Черкаси. вул.Дахнівська,50", "status": "Видана", "lon": 32.028461, "lat": 49.460807 }, "geometry": { "type": "Point", "coordinates": [ 32.028461, 49.460807 ] } },
{ "type": "Feature", "properties": { "id": 2541400068.0, "name": "ФОП Тимошенко Еріка Самедівна ", "number": "162324-64-2904", "type": "АЛКОГОЛЬ", "from": 20160628, "to": 20170627, "address": "м. Черкаси, бул. Шевченка,222", "status": "Видана", "lon": 32.059094, "lat": 49.443103 }, "geometry": { "type": "Point", "coordinates": [ 32.059094, 49.443103 ] } },
{ "type": "Feature", "properties": { "id": 34076783.0, "name": "ТОВ ДЕТРЕНА", "number": "162324-64-2905", "type": "АЛКОГОЛЬ", "from": 20160620, "to": 20170619, "address": "м. Черкаси, бул. Шевченка, 352", "status": "Видана", "lon": 32.082585, "lat": 49.430654 }, "geometry": { "type": "Point", "coordinates": [ 32.082585, 49.430654 ] } },
{ "type": "Feature", "properties": { "id": 36860729.0, "name": "ТОВ Торговий дім Ходак", "number": "162324-64-2906", "type": "АЛКОГОЛЬ", "from": 20160701, "to": 20170630, "address": "м. Черкаси,  проспект Хіміків, 3\/1", "status": "Видана", "lon": 32.035154, "lat": 49.413514 }, "geometry": { "type": "Point", "coordinates": [ 32.035154, 49.413514 ] } },
{ "type": "Feature", "properties": { "id": 2525307694.0, "name": "ФОП Явнюк Микола Миколайович ", "number": "162324-64-2939", "type": "АЛКОГОЛЬ", "from": 20160620, "to": 20170619, "address": "м. Черкаси, перетин вул.Надпільна та пров. Краснодонський, біля буд.423 по вул.Надпільній", "status": "Видана", "lon": 32.0808421, "lat": 49.4254866 }, "geometry": { "type": "Point", "coordinates": [ 32.0808421, 49.4254866 ] } },
{ "type": "Feature", "properties": { "id": 3311118353.0, "name": "ФОП Хрипченко Андрій Миколайович ", "number": "162324-64-2943", "type": "АЛКОГОЛЬ", "from": 20160620, "to": 20170619, "address": "м.Черкаси, вул.Гагаріна,23", "status": "Видана", "lon": 32.071652, "lat": 49.446324 }, "geometry": { "type": "Point", "coordinates": [ 32.071652, 49.446324 ] } },
{ "type": "Feature", "properties": { "id": 24410808.0, "name": "ДП Юрія-2 ПАТ Юрія", "number": "162324-64-2946", "type": "АЛКОГОЛЬ", "from": 20160701, "to": 20170630, "address": "м. Черкаси, вул. Благовісна, зупинка \"Різдвяна\"", "status": "Видана", "lon": 32.0852649, "lat": 49.4226663 }, "geometry": { "type": "Point", "coordinates": [ 32.0852649, 49.4226663 ] } },
{ "type": "Feature", "properties": { "id": 24410808.0, "name": "ДП Юрія-2 ПАТ Юрія", "number": "162324-64-2947", "type": "АЛКОГОЛЬ", "from": 20160701, "to": 20170630, "address": "м. Черкаси, вул. Кобзарська, 108", "status": "Видана", "lon": 32.090256, "lat": 49.415401 }, "geometry": { "type": "Point", "coordinates": [ 32.090256, 49.415401 ] } },
{ "type": "Feature", "properties": { "id": 24410808.0, "name": "ДП Юрія-2 ПАТ Юрія", "number": "162324-64-2948", "type": "АЛКОГОЛЬ", "from": 20160701, "to": 20170630, "address": "м. Черкаси, вул. Чорновола, зупинка \"Кінотеатр \"Мир\"\"", "status": "Видана", "lon": 32.077838, "lat": 49.4248695 }, "geometry": { "type": "Point", "coordinates": [ 32.077838, 49.4248695 ] } },
{ "type": "Feature", "properties": { "id": 24410808.0, "name": "ДП Юрія-2 ПАТ Юрія", "number": "162324-64-2949", "type": "АЛКОГОЛЬ", "from": 20160701, "to": 20170630, "address": "м. Черкаси, вул. Чорновола, зупинка \"Шкільна\"", "status": "Видана", "lon": 32.0564612, "lat": 49.4095094 }, "geometry": { "type": "Point", "coordinates": [ 32.0564612, 49.4095094 ] } },
{ "type": "Feature", "properties": { "id": 24410808.0, "name": "ДП Юрія-2 ПАТ Юрія", "number": "162324-64-2950", "type": "АЛКОГОЛЬ", "from": 20160701, "to": 20170630, "address": "м. Черкаси, вул. Смілянська,  зупинка \"Вул. Гоголя\"", "status": "Видана", "lon": 32.0614793, "lat": 49.4392522 }, "geometry": { "type": "Point", "coordinates": [ 32.0614793, 49.4392522 ] } },
{ "type": "Feature", "properties": { "id": 24410808.0, "name": "ДП Юрія-2 ПАТ Юрія", "number": "162324-64-2951", "type": "АЛКОГОЛЬ", "from": 20160701, "to": 20170630, "address": "м. Черкаси, вул. Максима Залізняка, зупинка \"Вул. Невського\"", "status": "Видана", "lon": 32.051851, "lat": 49.4229476 }, "geometry": { "type": "Point", "coordinates": [ 32.051851, 49.4229476 ] } },
{ "type": "Feature", "properties": { "id": 2606502082.0, "name": "ФОП Рогожа Олена Анатоліївна ", "number": "162324-64-2965", "type": "АЛКОГОЛЬ", "from": 20160625, "to": 20170624, "address": "м.Черкаси. вул.Леніна,30", "status": "Видана", "lon": 32.06381, "lat": 49.437339 }, "geometry": { "type": "Point", "coordinates": [ 32.06381, 49.437339 ] } },
{ "type": "Feature", "properties": { "id": 2447216826.0, "name": "ФОП Чорнорай Світлана Анатоліївна ", "number": "162324-64-2966", "type": "АЛКОГОЛЬ", "from": 20160625, "to": 20170624, "address": "м.Черкаси. вул.Леніна,30", "status": "Видана", "lon": 32.06381, "lat": 49.437339 }, "geometry": { "type": "Point", "coordinates": [ 32.06381, 49.437339 ] } },
{ "type": "Feature", "properties": { "id": 2406716047.0, "name": "ФОП Домбровська Ольга Віталіївна ", "number": "162324-64-2967", "type": "АЛКОГОЛЬ", "from": 20160704, "to": 20170703, "address": "м. Черкаси, бул. Шевченка, 345\/10", "status": "Видана", "lon": 32.089915, "lat": 49.427795 }, "geometry": { "type": "Point", "coordinates": [ 32.089915, 49.427795 ] } },
{ "type": "Feature", "properties": { "id": 3138815153.0, "name": "ФОП Азаматов Олександр Олександрович ", "number": "162324-64-2968", "type": "АЛКОГОЛЬ", "from": 20160701, "to": 20170630, "address": "м. Черкаси, вул.Сумгаїтська, 39", "status": "Видана", "lon": 32.012777, "lat": 49.431492 }, "geometry": { "type": "Point", "coordinates": [ 32.012777, 49.431492 ] } },
{ "type": "Feature", "properties": { "id": 2861513733.0, "name": "ФОП Запоточний ігор Вікторович ", "number": "162324-64-2973", "type": "АЛКОГОЛЬ", "from": 20160701, "to": 20170630, "address": "м. Черкаси, вул. Героїв Майдану, 13", "status": "Видана", "lon": 32.000434, "lat": 49.432892 }, "geometry": { "type": "Point", "coordinates": [ 32.000434, 49.432892 ] } },
{ "type": "Feature", "properties": { "id": 38843621.0, "name": "ПСК КООПМАРКЕТ ЧЕСКО ЧОСС", "number": "162324-64-3022", "type": "АЛКОГОЛЬ", "from": 20160624, "to": 20170623, "address": "м.Черкаси, вул. Гоголя, 226", "status": "Видана", "lon": 32.055554, "lat": 49.443308 }, "geometry": { "type": "Point", "coordinates": [ 32.055554, 49.443308 ] } },
{ "type": "Feature", "properties": { "id": 2604202079.0, "name": "ФОП Черненко Андрій Володимирович ", "number": "162324-64-3044", "type": "АЛКОГОЛЬ", "from": 20160701, "to": 20170630, "address": "м. Черкаси. вул. Козацька,7", "status": "Видана", "lon": 32.096131, "lat": 49.438036 }, "geometry": { "type": "Point", "coordinates": [ 32.096131, 49.438036 ] } },
{ "type": "Feature", "properties": { "id": 2478912623.0, "name": "ФОП Скрипка Світлана Олександрівна ", "number": "162324-64-3045", "type": "АЛКОГОЛЬ", "from": 20160701, "to": 20170630, "address": "м. Черкаси, вул. Чигиринська 13а", "status": "Видана", "lon": 32.104108, "lat": 49.414246 }, "geometry": { "type": "Point", "coordinates": [ 32.104108, 49.414246 ] } },